[{
  "id": "1",
  "county_id": "1",
  "siruta": "69919",
  "longitude": "23.8032646645854450",
  "latitude": "44.3185460894783180",
  "name": "Craiova",
  "region": "Sud-Vest - Oltenia"
}, {
  "id": "2",
  "county_id": "1",
  "siruta": "69928",
  "longitude": "23.8202882347495440",
  "latitude": "44.2735636696219930",
  "name": "F\u0103c\u0103i",
  "region": "Sud-Vest - Oltenia"
}, {
  "id": "3",
  "county_id": "1",
  "siruta": "69937",
  "longitude": "23.7584845862802790",
  "latitude": "44.3022027688843420",
  "name": "Mofleni",
  "region": "Sud-Vest - Oltenia"
}, {
  "id": "4",
  "county_id": "1",
  "siruta": "69946",
  "longitude": "23.7820807632963810",
  "latitude": "44.2879975601666090",
  "name": "Popoveni",
  "region": "Sud-Vest - Oltenia"
}, {
  "id": "5",
  "county_id": "1",
  "siruta": "69955",
  "longitude": "23.8216980089165280",
  "latitude": "44.3596189175165560",
  "name": "\u0218imnicu de Jos",
  "region": "Sud-Vest - Oltenia"
}, {
  "id": "6",
  "county_id": "1",
  "siruta": "69973",
  "longitude": "23.7390529927143380",
  "latitude": "44.2944085823179070",
  "name": "Bucov\u0103\u021b",
  "region": "Sud-Vest - Oltenia"
}, {
  "id": "7",
  "county_id": "1",
  "siruta": "69982",
  "longitude": "23.7471801918591650",
  "latitude": "44.2836272679775790",
  "name": "C\u00e2rligei",
  "region": "Sud-Vest - Oltenia"
}, {
  "id": "8",
  "county_id": "1",
  "siruta": "69991",
  "longitude": "23.5996584720727580",
  "latitude": "44.3021830998874360",
  "name": "Italieni",
  "region": "Sud-Vest - Oltenia"
}, {
  "id": "9",
  "county_id": "1",
  "siruta": "70003",
  "longitude": "23.7228956731654210",
  "latitude": "44.3111465619859220",
  "name": "Leamna de Jos",
  "region": "Sud-Vest - Oltenia"
}, {
  "id": "10",
  "county_id": "1",
  "siruta": "70012",
  "longitude": "23.6833385633586600",
  "latitude": "44.3022214783805670",
  "name": "Leamna de Sus",
  "region": "Sud-Vest - Oltenia"
}, {
  "id": "11",
  "county_id": "1",
  "siruta": "70021",
  "longitude": "23.7213027189016540",
  "latitude": "44.2691069330963530",
  "name": "Palilula",
  "region": "Sud-Vest - Oltenia"
}, {
  "id": "12",
  "county_id": "1",
  "siruta": "70030",
  "longitude": "23.6523823922681480",
  "latitude": "44.2990018918592060",
  "name": "S\u0103rb\u0103toarea",
  "region": "Sud-Vest - Oltenia"
}, {
  "id": "13",
  "county_id": "1",
  "siruta": "70058",
  "longitude": "23.7413976467790280",
  "latitude": "44.3336303409718510",
  "name": "Cernele",
  "region": "Sud-Vest - Oltenia"
}, {
  "id": "14",
  "county_id": "1",
  "siruta": "70067",
  "longitude": "23.7396710987409950",
  "latitude": "44.3380660850289560",
  "name": "Cernelele de Sus",
  "region": "Sud-Vest - Oltenia"
}, {
  "id": "15",
  "county_id": "1",
  "siruta": "70076",
  "longitude": "23.7529537112790830",
  "latitude": "44.3560253010565260",
  "name": "Izvorul Rece",
  "region": "Sud-Vest - Oltenia"
}, {
  "id": "16",
  "county_id": "1",
  "siruta": "70085",
  "longitude": "23.7202962195588010",
  "latitude": "44.3613558689269920",
  "name": "Rovine",
  "region": "Sud-Vest - Oltenia"
}, {
  "id": "17",
  "county_id": "1",
  "siruta": "70101",
  "longitude": "23.7371126264848090",
  "latitude": "44.3939013768701330",
  "name": "I\u0219alni\u021ba",
  "region": "Sud-Vest - Oltenia"
}, {
  "id": "18",
  "county_id": "1",
  "siruta": "70129",
  "longitude": "23.7811511236625570",
  "latitude": "44.2475322877211070",
  "name": "Podari",
  "region": "Sud-Vest - Oltenia"
}, {
  "id": "19",
  "county_id": "1",
  "siruta": "70138",
  "longitude": "23.8019263548066600",
  "latitude": "44.2625515622237910",
  "name": "Balta Verde",
  "region": "Sud-Vest - Oltenia"
}, {
  "id": "20",
  "county_id": "1",
  "siruta": "70147",
  "longitude": "23.7902972461994150",
  "latitude": "44.2706981214933110",
  "name": "Brani\u0219te",
  "region": "Sud-Vest - Oltenia"
}, {
  "id": "21",
  "county_id": "1",
  "siruta": "70156",
  "longitude": "23.7980508165876720",
  "latitude": "44.2077361889743440",
  "name": "Gura V\u0103ii",
  "region": "Sud-Vest - Oltenia"
}, {
  "id": "22",
  "county_id": "1",
  "siruta": "70165",
  "longitude": "23.7894043705468690",
  "latitude": "44.2312054072137000",
  "name": "Livezi",
  "region": "Sud-Vest - Oltenia"
}, {
  "id": "23",
  "county_id": "1",
  "siruta": "70183",
  "longitude": "23.7974326384052650",
  "latitude": "44.3924197147726860",
  "name": "\u0218imnicu de Sus",
  "region": "Sud-Vest - Oltenia"
}, {
  "id": "24",
  "county_id": "1",
  "siruta": "70192",
  "longitude": "23.7670353396514890",
  "latitude": "44.3745586903893210",
  "name": "Albe\u0219ti",
  "region": "Sud-Vest - Oltenia"
}, {
  "id": "25",
  "county_id": "1",
  "siruta": "70209",
  "longitude": "23.7923997260495700",
  "latitude": "44.4405256072895940",
  "name": "Cornetu",
  "region": "Sud-Vest - Oltenia"
}, {
  "id": "26",
  "county_id": "1",
  "siruta": "70218",
  "longitude": "23.7971121583406210",
  "latitude": "44.4313958749125180",
  "name": "Deleni",
  "region": "Sud-Vest - Oltenia"
}, {
  "id": "27",
  "county_id": "1",
  "siruta": "70227",
  "longitude": "23.7812186727702010",
  "latitude": "44.3851082759949380",
  "name": "Dudovice\u0219ti",
  "region": "Sud-Vest - Oltenia"
}, {
  "id": "28",
  "county_id": "1",
  "siruta": "70236",
  "longitude": "23.7790543622325180",
  "latitude": "44.4603441341324910",
  "name": "Du\u021bule\u0219ti",
  "region": "Sud-Vest - Oltenia"
}, {
  "id": "29",
  "county_id": "1",
  "siruta": "70245",
  "longitude": "23.7956360745774800",
  "latitude": "44.3961175647503910",
  "name": "Flore\u0219ti",
  "region": "Sud-Vest - Oltenia"
}, {
  "id": "30",
  "county_id": "1",
  "siruta": "70254",
  "longitude": "23.7993495052153750",
  "latitude": "44.4234546199427880",
  "name": "Izvor",
  "region": "Sud-Vest - Oltenia"
}, {
  "id": "31",
  "county_id": "1",
  "siruta": "70263",
  "longitude": "23.7996009952502410",
  "latitude": "44.3780426666109450",
  "name": "Jieni",
  "region": "Sud-Vest - Oltenia"
}, {
  "id": "32",
  "county_id": "1",
  "siruta": "70272",
  "longitude": "23.7839850979319150",
  "latitude": "44.4272768537139910",
  "name": "Le\u0219ile",
  "region": "Sud-Vest - Oltenia"
}, {
  "id": "33",
  "county_id": "1",
  "siruta": "70281",
  "longitude": "23.7863303601784220",
  "latitude": "44.4501805554577340",
  "name": "Mile\u0219ti",
  "region": "Sud-Vest - Oltenia"
}, {
  "id": "34",
  "county_id": "1",
  "siruta": "70290",
  "longitude": "23.7844216675336570",
  "latitude": "44.3945480394324790",
  "name": "Rom\u00e2ne\u0219ti",
  "region": "Sud-Vest - Oltenia"
}, {
  "id": "35",
  "county_id": "1",
  "siruta": "70325",
  "longitude": "23.3459415876305340",
  "latitude": "44.0209153600286880",
  "name": "B\u0103ile\u0219ti",
  "region": "Sud-Vest - Oltenia"
}, {
  "id": "36",
  "county_id": "1",
  "siruta": "70334",
  "longitude": "23.2641906781869070",
  "latitude": "44.0265120102346330",
  "name": "Balasan",
  "region": "Sud-Vest - Oltenia"
}, {
  "id": "37",
  "county_id": "1",
  "siruta": "70361",
  "longitude": "22.9351576967056940",
  "latitude": "43.9904102074320990",
  "name": "Calafat",
  "region": "Sud-Vest - Oltenia"
}, {
  "id": "38",
  "county_id": "1",
  "siruta": "70370",
  "longitude": "23.0091548818187660",
  "latitude": "44.0056086012877120",
  "name": "Basarabi",
  "region": "Sud-Vest - Oltenia"
}, {
  "id": "39",
  "county_id": "1",
  "siruta": "70389",
  "longitude": "22.8946867233164330",
  "latitude": "43.9451223749017220",
  "name": "Ciupercenii Vechi",
  "region": "Sud-Vest - Oltenia"
}, {
  "id": "40",
  "county_id": "1",
  "siruta": "70398",
  "longitude": "23.0566600627717800",
  "latitude": "44.0129037860736290",
  "name": "Golen\u021bi",
  "region": "Sud-Vest - Oltenia"
}, {
  "id": "41",
  "county_id": "1",
  "siruta": "70423",
  "longitude": "23.5234412806571920",
  "latitude": "44.5532827461693090",
  "name": "Filia\u0219i",
  "region": "Sud-Vest - Oltenia"
}, {
  "id": "42",
  "county_id": "1",
  "siruta": "70432",
  "longitude": "23.5943150689610840",
  "latitude": "44.5560966773355740",
  "name": "Alm\u0103jel",
  "region": "Sud-Vest - Oltenia"
}, {
  "id": "43",
  "county_id": "1",
  "siruta": "70441",
  "longitude": "23.4701860963210720",
  "latitude": "44.5356427826423560",
  "name": "B\u00e2lta",
  "region": "Sud-Vest - Oltenia"
}, {
  "id": "44",
  "county_id": "1",
  "siruta": "70450",
  "longitude": "23.5573992910621220",
  "latitude": "44.6036837794517850",
  "name": "Brani\u0219te",
  "region": "Sud-Vest - Oltenia"
}, {
  "id": "45",
  "county_id": "1",
  "siruta": "70469",
  "longitude": "23.5704442227361280",
  "latitude": "44.5867130241815130",
  "name": "Frato\u0219ti\u021ba",
  "region": "Sud-Vest - Oltenia"
}, {
  "id": "46",
  "county_id": "1",
  "siruta": "70478",
  "longitude": "23.5574595784632660",
  "latitude": "44.5353892307640460",
  "name": "R\u0103carii de Sus",
  "region": "Sud-Vest - Oltenia"
}, {
  "id": "47",
  "county_id": "1",
  "siruta": "70487",
  "longitude": "23.5882364253155570",
  "latitude": "44.6084571326817350",
  "name": "Usc\u0103ci",
  "region": "Sud-Vest - Oltenia"
}, {
  "id": "48",
  "county_id": "1",
  "siruta": "70511",
  "longitude": "23.7419700865388710",
  "latitude": "44.0943439378938610",
  "name": "Segarcea",
  "region": "Sud-Vest - Oltenia"
}, {
  "id": "49",
  "county_id": "1",
  "siruta": "70539",
  "longitude": "23.4753643670316880",
  "latitude": "44.0039289045878450",
  "name": "Afuma\u021bi",
  "region": "Sud-Vest - Oltenia"
}, {
  "id": "50",
  "county_id": "1",
  "siruta": "70548",
  "longitude": "23.4339339009603190",
  "latitude": "44.0158865480475470",
  "name": "Boureni",
  "region": "Sud-Vest - Oltenia"
}, {
  "id": "51",
  "county_id": "1",
  "siruta": "70557",
  "longitude": "23.4222693284238340",
  "latitude": "43.9739716359411690",
  "name": "Covei",
  "region": "Sud-Vest - Oltenia"
}, {
  "id": "52",
  "county_id": "1",
  "siruta": "70575",
  "longitude": "23.7071736984586430",
  "latitude": "44.4467798999471600",
  "name": "Alm\u0103j",
  "region": "Sud-Vest - Oltenia"
}, {
  "id": "53",
  "county_id": "1",
  "siruta": "70584",
  "longitude": "23.6841789358993430",
  "latitude": "44.4457936362428900",
  "name": "Beharca",
  "region": "Sud-Vest - Oltenia"
}, {
  "id": "54",
  "county_id": "1",
  "siruta": "70593",
  "longitude": "23.7062994029614100",
  "latitude": "44.4341965400593470",
  "name": "Bogea",
  "region": "Sud-Vest - Oltenia"
}, {
  "id": "55",
  "county_id": "1",
  "siruta": "70600",
  "longitude": "23.6568811176012130",
  "latitude": "44.4597099211692280",
  "name": "Co\u021bofenii din Fa\u021b\u0103",
  "region": "Sud-Vest - Oltenia"
}, {
  "id": "56",
  "county_id": "1",
  "siruta": "70619",
  "longitude": "23.7009107279644130",
  "latitude": "44.4604692220011230",
  "name": "Mo\u0219neni",
  "region": "Sud-Vest - Oltenia"
}, {
  "id": "57",
  "county_id": "1",
  "siruta": "70628",
  "longitude": "23.7222143428904210",
  "latitude": "44.4222639219723800",
  "name": "\u0218itoaia",
  "region": "Sud-Vest - Oltenia"
}, {
  "id": "58",
  "county_id": "1",
  "siruta": "70646",
  "longitude": "24.1676826993776750",
  "latitude": "43.9545378276701440",
  "name": "Am\u0103r\u0103\u0219tii de Jos",
  "region": "Sud-Vest - Oltenia"
}, {
  "id": "59",
  "county_id": "1",
  "siruta": "70655",
  "longitude": "24.1398540333188120",
  "latitude": "43.8789307552670490",
  "name": "Ocolna",
  "region": "Sud-Vest - Oltenia"
}, {
  "id": "60",
  "county_id": "1",
  "siruta": "70664",
  "longitude": "24.1747454028714830",
  "latitude": "43.9448706046207110",
  "name": "Prapor",
  "region": "Sud-Vest - Oltenia"
}, {
  "id": "61",
  "county_id": "1",
  "siruta": "70682",
  "longitude": "24.1571136758151430",
  "latitude": "43.9799724296595120",
  "name": "Am\u0103r\u0103\u0219tii de Sus",
  "region": "Sud-Vest - Oltenia"
}, {
  "id": "62",
  "county_id": "1",
  "siruta": "70691",
  "longitude": "24.1240527815495580",
  "latitude": "43.9614142352866610",
  "name": "Dobrote\u0219ti",
  "region": "Sud-Vest - Oltenia"
}, {
  "id": "63",
  "county_id": "1",
  "siruta": "70708",
  "longitude": "24.1326439211082510",
  "latitude": "43.9735672970463580",
  "name": "Nisipuri",
  "region": "Sud-Vest - Oltenia"
}, {
  "id": "64",
  "county_id": "1",
  "siruta": "70717",
  "longitude": "24.1771874145916570",
  "latitude": "43.9917937550423450",
  "name": "Zvorsca",
  "region": "Sud-Vest - Oltenia"
}, {
  "id": "65",
  "county_id": "1",
  "siruta": "70735",
  "longitude": "24.0661085825242220",
  "latitude": "44.0665839922769960",
  "name": "Apele Vii",
  "region": "Sud-Vest - Oltenia"
}, {
  "id": "66",
  "county_id": "1",
  "siruta": "70753",
  "longitude": "23.3781534754317520",
  "latitude": "44.5153380127050440",
  "name": "Argetoaia",
  "region": "Sud-Vest - Oltenia"
}, {
  "id": "67",
  "county_id": "1",
  "siruta": "70762",
  "longitude": "23.3872493828470450",
  "latitude": "44.4968463052024750",
  "name": "B\u0103ranu",
  "region": "Sud-Vest - Oltenia"
}, {
  "id": "68",
  "county_id": "1",
  "siruta": "70771",
  "longitude": "23.3499942431901460",
  "latitude": "44.5045695692401180",
  "name": "Berbe\u0219u",
  "region": "Sud-Vest - Oltenia"
}, {
  "id": "69",
  "county_id": "1",
  "siruta": "70780",
  "longitude": "23.3663766794774150",
  "latitude": "44.5060953145822680",
  "name": "Iord\u0103che\u0219ti",
  "region": "Sud-Vest - Oltenia"
}, {
  "id": "70",
  "county_id": "1",
  "siruta": "70799",
  "longitude": "23.4138003821270000",
  "latitude": "44.5108679943278100",
  "name": "Leordoasa",
  "region": "Sud-Vest - Oltenia"
}, {
  "id": "71",
  "county_id": "1",
  "siruta": "70806",
  "longitude": "23.3195929978731120",
  "latitude": "44.5176123816481780",
  "name": "Malumnic",
  "region": "Sud-Vest - Oltenia"
}, {
  "id": "72",
  "county_id": "1",
  "siruta": "70815",
  "longitude": "23.3754601649494450",
  "latitude": "44.4984050893462780",
  "name": "Novac",
  "region": "Sud-Vest - Oltenia"
}, {
  "id": "73",
  "county_id": "1",
  "siruta": "70824",
  "longitude": "23.3142477940991240",
  "latitude": "44.5068037548850770",
  "name": "Piria",
  "region": "Sud-Vest - Oltenia"
}, {
  "id": "74",
  "county_id": "1",
  "siruta": "70833",
  "longitude": "23.3666730127996800",
  "latitude": "44.5142901711263120",
  "name": "Poiana F\u00e2nt\u00e2nii",
  "region": "Sud-Vest - Oltenia"
}, {
  "id": "75",
  "county_id": "1",
  "siruta": "70842",
  "longitude": "23.4464520676757570",
  "latitude": "44.4819540855518130",
  "name": "Salcia",
  "region": "Sud-Vest - Oltenia"
}, {
  "id": "76",
  "county_id": "1",
  "siruta": "70851",
  "longitude": "23.3897624922993190",
  "latitude": "44.5244150499016700",
  "name": "Teascu din Deal",
  "region": "Sud-Vest - Oltenia"
}, {
  "id": "77",
  "county_id": "1",
  "siruta": "70860",
  "longitude": "23.4033715042336890",
  "latitude": "44.5331951922809140",
  "name": "Ursoaia",
  "region": "Sud-Vest - Oltenia"
}, {
  "id": "78",
  "county_id": "1",
  "siruta": "70888",
  "longitude": "23.9587008995857150",
  "latitude": "43.7830086248431410",
  "name": "Bechet",
  "region": "Sud-Vest - Oltenia"
}, {
  "id": "79",
  "county_id": "1",
  "siruta": "70904",
  "longitude": "23.5015481009637950",
  "latitude": "43.8920158948735660",
  "name": "Bistre\u021b",
  "region": "Sud-Vest - Oltenia"
}, {
  "id": "80",
  "county_id": "1",
  "siruta": "70913",
  "longitude": "23.4718720681747860",
  "latitude": "43.9008762791084590",
  "name": "Bistre\u021bu Nou",
  "region": "Sud-Vest - Oltenia"
}, {
  "id": "81",
  "county_id": "1",
  "siruta": "70922",
  "longitude": "23.5647410941605140",
  "latitude": "43.9180602595864540",
  "name": "Br\u00e2ndu\u0219a",
  "region": "Sud-Vest - Oltenia"
}, {
  "id": "82",
  "county_id": "1",
  "siruta": "70931",
  "longitude": "23.5534691655485420",
  "latitude": "43.8955327519091230",
  "name": "Plosca",
  "region": "Sud-Vest - Oltenia"
}, {
  "id": "83",
  "county_id": "1",
  "siruta": "70959",
  "longitude": "23.6178230848736060",
  "latitude": "43.9695402510394830",
  "name": "B\u00e2rca",
  "region": "Sud-Vest - Oltenia"
}, {
  "id": "84",
  "county_id": "1",
  "siruta": "70977",
  "longitude": "23.2638116479014490",
  "latitude": "44.4038980222733880",
  "name": "Boto\u0219e\u0219ti-Paia",
  "region": "Sud-Vest - Oltenia"
}, {
  "id": "85",
  "county_id": "1",
  "siruta": "70995",
  "longitude": "23.4257289003050030",
  "latitude": "44.3676841035777870",
  "name": "Brabova",
  "region": "Sud-Vest - Oltenia"
}, {
  "id": "86",
  "county_id": "1",
  "siruta": "71000",
  "longitude": "23.3810514252584270",
  "latitude": "44.3473663064688780",
  "name": "Caraiman",
  "region": "Sud-Vest - Oltenia"
}, {
  "id": "87",
  "county_id": "1",
  "siruta": "71019",
  "longitude": "23.3689930161539120",
  "latitude": "44.3372826425544990",
  "name": "Mosna",
  "region": "Sud-Vest - Oltenia"
}, {
  "id": "88",
  "county_id": "1",
  "siruta": "71028",
  "longitude": "23.4049455945206230",
  "latitude": "44.3459973857304420",
  "name": "R\u0103chita de Jos",
  "region": "Sud-Vest - Oltenia"
}, {
  "id": "89",
  "county_id": "1",
  "siruta": "71037",
  "longitude": "23.4265418284546310",
  "latitude": "44.3890265886308630",
  "name": "Urdini\u021ba",
  "region": "Sud-Vest - Oltenia"
}, {
  "id": "90",
  "county_id": "1",
  "siruta": "71046",
  "longitude": "23.3816901648116480",
  "latitude": "44.3644674546118980",
  "name": "Voita",
  "region": "Sud-Vest - Oltenia"
}, {
  "id": "91",
  "county_id": "1",
  "siruta": "71064",
  "longitude": "23.6306441875269580",
  "latitude": "44.4887621254660390",
  "name": "Br\u0103de\u0219ti",
  "region": "Sud-Vest - Oltenia"
}, {
  "id": "92",
  "county_id": "1",
  "siruta": "71073",
  "longitude": "23.6669918306918310",
  "latitude": "44.4948141203718490",
  "name": "Br\u0103de\u0219tii B\u0103tr\u00e2ni",
  "region": "Sud-Vest - Oltenia"
}, {
  "id": "93",
  "county_id": "1",
  "siruta": "71082",
  "longitude": "23.6281756647117650",
  "latitude": "44.5392060252010400",
  "name": "Meteu",
  "region": "Sud-Vest - Oltenia"
}, {
  "id": "94",
  "county_id": "1",
  "siruta": "71091",
  "longitude": "23.6061572285385180",
  "latitude": "44.5421670904599130",
  "name": "Piscani",
  "region": "Sud-Vest - Oltenia"
}, {
  "id": "95",
  "county_id": "1",
  "siruta": "71108",
  "longitude": "23.5762293001679240",
  "latitude": "44.5243683383548190",
  "name": "R\u0103carii de Jos",
  "region": "Sud-Vest - Oltenia"
}, {
  "id": "96",
  "county_id": "1",
  "siruta": "71117",
  "longitude": "23.5966102497967290",
  "latitude": "44.5166225807472880",
  "name": "Tatomire\u0219ti",
  "region": "Sud-Vest - Oltenia"
}, {
  "id": "97",
  "county_id": "1",
  "siruta": "71135",
  "longitude": "23.5254645324319580",
  "latitude": "44.4987754892578380",
  "name": "Bralo\u0219ti\u021ba",
  "region": "Sud-Vest - Oltenia"
}, {
  "id": "98",
  "county_id": "1",
  "siruta": "71144",
  "longitude": "23.4491080186330580",
  "latitude": "44.5136634974363760",
  "name": "Ciocanele",
  "region": "Sud-Vest - Oltenia"
}, {
  "id": "99",
  "county_id": "1",
  "siruta": "71153",
  "longitude": "23.4352860710481220",
  "latitude": "44.5196108329123560",
  "name": "Racovi\u021ba",
  "region": "Sud-Vest - Oltenia"
}, {
  "id": "100",
  "county_id": "1",
  "siruta": "71162",
  "longitude": "23.5064984861762770",
  "latitude": "44.5090652829170070",
  "name": "Schitu",
  "region": "Sud-Vest - Oltenia"
}, {
  "id": "101",
  "county_id": "1",
  "siruta": "71171",
  "longitude": "23.5466080366983910",
  "latitude": "44.4861255500104280",
  "name": "Sf\u00e2rcea",
  "region": "Sud-Vest - Oltenia"
}, {
  "id": "102",
  "county_id": "1",
  "siruta": "71180",
  "longitude": "23.4844401820152800",
  "latitude": "44.5017594515468030",
  "name": "Valea F\u00e2nt\u00e2nilor",
  "region": "Sud-Vest - Oltenia"
}, {
  "id": "103",
  "county_id": "1",
  "siruta": "71206",
  "longitude": "23.9036928263996840",
  "latitude": "44.1279252680559750",
  "name": "Bratovoe\u0219ti",
  "region": "Sud-Vest - Oltenia"
}, {
  "id": "104",
  "county_id": "1",
  "siruta": "71215",
  "longitude": "23.8897431346065190",
  "latitude": "44.1472279339670450",
  "name": "B\u0103do\u0219i",
  "region": "Sud-Vest - Oltenia"
}, {
  "id": "105",
  "county_id": "1",
  "siruta": "71224",
  "longitude": "23.9509715937124880",
  "latitude": "44.1210868515339530",
  "name": "Georocu Mare",
  "region": "Sud-Vest - Oltenia"
}, {
  "id": "106",
  "county_id": "1",
  "siruta": "71233",
  "longitude": "23.9134008105682310",
  "latitude": "44.1527511033321720",
  "name": "Prunet",
  "region": "Sud-Vest - Oltenia"
}, {
  "id": "107",
  "county_id": "1",
  "siruta": "71242",
  "longitude": "23.9389781977460530",
  "latitude": "44.0668316621252530",
  "name": "Roji\u0219te",
  "region": "Sud-Vest - Oltenia"
}, {
  "id": "108",
  "county_id": "1",
  "siruta": "71251",
  "longitude": "23.9360200067099420",
  "latitude": "44.0277899192004800",
  "name": "T\u00e2mbure\u0219ti",
  "region": "Sud-Vest - Oltenia"
}, {
  "id": "109",
  "county_id": "1",
  "siruta": "71279",
  "longitude": "23.6881521465916580",
  "latitude": "44.3426344672977350",
  "name": "Breasta",
  "region": "Sud-Vest - Oltenia"
}, {
  "id": "110",
  "county_id": "1",
  "siruta": "71288",
  "longitude": "23.6970412109899620",
  "latitude": "44.3550319715881760",
  "name": "Cotu",
  "region": "Sud-Vest - Oltenia"
}, {
  "id": "111",
  "county_id": "1",
  "siruta": "71297",
  "longitude": "23.6528089738951480",
  "latitude": "44.3658965575935800",
  "name": "Crovna",
  "region": "Sud-Vest - Oltenia"
}, {
  "id": "112",
  "county_id": "1",
  "siruta": "71304",
  "longitude": "23.6237280248723240",
  "latitude": "44.3314878343106860",
  "name": "F\u0103get",
  "region": "Sud-Vest - Oltenia"
}, {
  "id": "113",
  "county_id": "1",
  "siruta": "71313",
  "longitude": "23.6899830412913130",
  "latitude": "44.3653902745486230",
  "name": "Obedin",
  "region": "Sud-Vest - Oltenia"
}, {
  "id": "114",
  "county_id": "1",
  "siruta": "71322",
  "longitude": "23.6760985096026530",
  "latitude": "44.3328091211564230",
  "name": "Ro\u0219ieni",
  "region": "Sud-Vest - Oltenia"
}, {
  "id": "115",
  "county_id": "1",
  "siruta": "71331",
  "longitude": "23.6672821709683490",
  "latitude": "44.3514074837285650",
  "name": "Valea Lungului",
  "region": "Sud-Vest - Oltenia"
}, {
  "id": "116",
  "county_id": "1",
  "siruta": "71359",
  "longitude": "23.8745468812479730",
  "latitude": "44.5765581382369970",
  "name": "Prejoi",
  "region": "Sud-Vest - Oltenia"
}, {
  "id": "117",
  "county_id": "1",
  "siruta": "71368",
  "longitude": "23.8869135893052660",
  "latitude": "44.5406353193456540",
  "name": "Bulze\u0219ti",
  "region": "Sud-Vest - Oltenia"
}, {
  "id": "118",
  "county_id": "1",
  "siruta": "71377",
  "longitude": "23.8532187986721840",
  "latitude": "44.6244852485050390",
  "name": "Fr\u0103\u021bila",
  "region": "Sud-Vest - Oltenia"
}, {
  "id": "119",
  "county_id": "1",
  "siruta": "71386",
  "longitude": "23.8959669773022620",
  "latitude": "44.5245781217470270",
  "name": "Gura Racului",
  "region": "Sud-Vest - Oltenia"
}, {
  "id": "120",
  "county_id": "1",
  "siruta": "71395",
  "longitude": "23.8589287924619780",
  "latitude": "44.6123568941491650",
  "name": "\u00cenfr\u0103\u021birea",
  "region": "Sud-Vest - Oltenia"
}, {
  "id": "121",
  "county_id": "1",
  "siruta": "71402",
  "longitude": "23.8837849001947480",
  "latitude": "44.6183836605816420",
  "name": "Piscu Lung",
  "region": "Sud-Vest - Oltenia"
}, {
  "id": "122",
  "county_id": "1",
  "siruta": "71411",
  "longitude": "23.8395853627387200",
  "latitude": "44.6337330654167910",
  "name": "Poienile",
  "region": "Sud-Vest - Oltenia"
}, {
  "id": "123",
  "county_id": "1",
  "siruta": "71420",
  "longitude": "23.8654759166812730",
  "latitude": "44.5972576350850150",
  "name": "S\u0103li\u0219te",
  "region": "Sud-Vest - Oltenia"
}, {
  "id": "124",
  "county_id": "1",
  "siruta": "71439",
  "longitude": "23.8823614006743950",
  "latitude": "44.5579965503513980",
  "name": "Secule\u0219ti",
  "region": "Sud-Vest - Oltenia"
}, {
  "id": "125",
  "county_id": "1",
  "siruta": "71448",
  "longitude": "23.8772361785106920",
  "latitude": "44.6265808352714900",
  "name": "Stoice\u0219ti",
  "region": "Sud-Vest - Oltenia"
}, {
  "id": "126",
  "county_id": "1",
  "siruta": "71466",
  "longitude": "23.7605984808757360",
  "latitude": "44.1650205649781710",
  "name": "Calop\u0103r",
  "region": "Sud-Vest - Oltenia"
}, {
  "id": "127",
  "county_id": "1",
  "siruta": "71475",
  "longitude": "23.7935468195888940",
  "latitude": "44.1298743956941810",
  "name": "Belcinu",
  "region": "Sud-Vest - Oltenia"
}, {
  "id": "128",
  "county_id": "1",
  "siruta": "71484",
  "longitude": "23.8372514975668640",
  "latitude": "44.1495049761266640",
  "name": "B\u00e2zd\u00e2na",
  "region": "Sud-Vest - Oltenia"
}, {
  "id": "129",
  "county_id": "1",
  "siruta": "71493",
  "longitude": "23.7044279038060210",
  "latitude": "44.1737560608096090",
  "name": "Panaghia",
  "region": "Sud-Vest - Oltenia"
}, {
  "id": "130",
  "county_id": "1",
  "siruta": "71509",
  "longitude": "23.7024743059019410",
  "latitude": "44.1598554847620970",
  "name": "S\u0103lcu\u021ba",
  "region": "Sud-Vest - Oltenia"
}, {
  "id": "131",
  "county_id": "1",
  "siruta": "71527",
  "longitude": "23.2529760606147460",
  "latitude": "44.1928731043394620",
  "name": "Caraula",
  "region": "Sud-Vest - Oltenia"
}, {
  "id": "132",
  "county_id": "1",
  "siruta": "71545",
  "longitude": "23.2603416071967390",
  "latitude": "44.3367985585983600",
  "name": "Carpen",
  "region": "Sud-Vest - Oltenia"
}, {
  "id": "133",
  "county_id": "1",
  "siruta": "71554",
  "longitude": "23.2103213412910600",
  "latitude": "44.3528814921171420",
  "name": "Cleanov",
  "region": "Sud-Vest - Oltenia"
}, {
  "id": "134",
  "county_id": "1",
  "siruta": "71563",
  "longitude": "23.3110977838734290",
  "latitude": "44.3353755995888580",
  "name": "Geble\u0219ti",
  "region": "Sud-Vest - Oltenia"
}, {
  "id": "135",
  "county_id": "1",
  "siruta": "71581",
  "longitude": "24.0146282159065370",
  "latitude": "44.1172173639006930",
  "name": "Castranova",
  "region": "Sud-Vest - Oltenia"
}, {
  "id": "136",
  "county_id": "1",
  "siruta": "71590",
  "longitude": "24.0101719386178090",
  "latitude": "44.1383455860724180",
  "name": "Pu\u021buri",
  "region": "Sud-Vest - Oltenia"
}, {
  "id": "137",
  "county_id": "1",
  "siruta": "71616",
  "longitude": "24.0480076465414040",
  "latitude": "43.7939453728060000",
  "name": "C\u0103l\u0103ra\u0219i",
  "region": "Sud-Vest - Oltenia"
}, {
  "id": "138",
  "county_id": "1",
  "siruta": "71625",
  "longitude": "24.0335080893538020",
  "latitude": "43.7743647269327030",
  "name": "S\u0103rata",
  "region": "Sud-Vest - Oltenia"
}, {
  "id": "139",
  "county_id": "1",
  "siruta": "71643",
  "longitude": "24.1315853355661080",
  "latitude": "44.0423605772156460",
  "name": "Celaru",
  "region": "Sud-Vest - Oltenia"
}, {
  "id": "140",
  "county_id": "1",
  "siruta": "71652",
  "longitude": "24.1081096394006060",
  "latitude": "44.0575658497067620",
  "name": "Ghizd\u0103ve\u0219ti",
  "region": "Sud-Vest - Oltenia"
}, {
  "id": "141",
  "county_id": "1",
  "siruta": "71661",
  "longitude": "24.1466334852182880",
  "latitude": "44.0311455195347180",
  "name": "Marotinu de Jos",
  "region": "Sud-Vest - Oltenia"
}, {
  "id": "142",
  "county_id": "1",
  "siruta": "71670",
  "longitude": "24.0850037781739270",
  "latitude": "44.0260883099023490",
  "name": "Marotinu de Sus",
  "region": "Sud-Vest - Oltenia"
}, {
  "id": "143",
  "county_id": "1",
  "siruta": "71689",
  "longitude": "24.1272679914001710",
  "latitude": "44.0524156339854610",
  "name": "Soreni",
  "region": "Sud-Vest - Oltenia"
}, {
  "id": "144",
  "county_id": "1",
  "siruta": "71705",
  "longitude": "23.6704918129023620",
  "latitude": "44.0613456738506530",
  "name": "Cer\u0103t",
  "region": "Sud-Vest - Oltenia"
}, {
  "id": "145",
  "county_id": "1",
  "siruta": "71714",
  "longitude": "23.6710705552605130",
  "latitude": "44.0858144123554040",
  "name": "Malaica",
  "region": "Sud-Vest - Oltenia"
}, {
  "id": "146",
  "county_id": "1",
  "siruta": "71732",
  "longitude": "23.4355615871113480",
  "latitude": "44.4491135355260450",
  "name": "Cern\u0103te\u0219ti",
  "region": "Sud-Vest - Oltenia"
}, {
  "id": "147",
  "county_id": "1",
  "siruta": "71741",
  "longitude": "23.4916519505930060",
  "latitude": "44.4524436652004980",
  "name": "Corni\u021ba",
  "region": "Sud-Vest - Oltenia"
}, {
  "id": "148",
  "county_id": "1",
  "siruta": "71750",
  "longitude": "23.5379587362513800",
  "latitude": "44.4254949598195880",
  "name": "Rasnicu B\u0103tr\u00e2n",
  "region": "Sud-Vest - Oltenia"
}, {
  "id": "149",
  "county_id": "1",
  "siruta": "71769",
  "longitude": "23.5311089419819300",
  "latitude": "44.4429926077249600",
  "name": "Rasnicu Oghian",
  "region": "Sud-Vest - Oltenia"
}, {
  "id": "150",
  "county_id": "1",
  "siruta": "71778",
  "longitude": "23.3825957748071930",
  "latitude": "44.4456923294208150",
  "name": "\u021aiu",
  "region": "Sud-Vest - Oltenia"
}, {
  "id": "151",
  "county_id": "1",
  "siruta": "71796",
  "longitude": "23.0500090329664820",
  "latitude": "44.1101663750427450",
  "name": "Cetate",
  "region": "Sud-Vest - Oltenia"
}, {
  "id": "152",
  "county_id": "1",
  "siruta": "71803",
  "longitude": "23.0773957744054950",
  "latitude": "44.0877048777330100",
  "name": "Moreni",
  "region": "Sud-Vest - Oltenia"
}, {
  "id": "153",
  "county_id": "1",
  "siruta": "71821",
  "longitude": "23.4516463519523950",
  "latitude": "44.0854334602240670",
  "name": "Cioroia\u0219i",
  "region": "Sud-Vest - Oltenia"
}, {
  "id": "154",
  "county_id": "1",
  "siruta": "71830",
  "longitude": "23.4703956823450960",
  "latitude": "44.1099188973732690",
  "name": "Cet\u0103\u021buia",
  "region": "Sud-Vest - Oltenia"
}, {
  "id": "155",
  "county_id": "1",
  "siruta": "71849",
  "longitude": "23.4341580191344330",
  "latitude": "44.0633744977990180",
  "name": "Cioroiu Nou",
  "region": "Sud-Vest - Oltenia"
}, {
  "id": "156",
  "county_id": "1",
  "siruta": "71867",
  "longitude": "22.9516154839646020",
  "latitude": "43.9099041120415020",
  "name": "Ciupercenii Noi",
  "region": "Sud-Vest - Oltenia"
}, {
  "id": "157",
  "county_id": "1",
  "siruta": "71876",
  "longitude": "22.9659242538747930",
  "latitude": "43.9338181567469520",
  "name": "Sm\u00e2rdan",
  "region": "Sud-Vest - Oltenia"
}, {
  "id": "158",
  "county_id": "1",
  "siruta": "71894",
  "longitude": "23.9361173124185350",
  "latitude": "44.2462790637967560",
  "name": "Co\u0219oveni",
  "region": "Sud-Vest - Oltenia"
}, {
  "id": "159",
  "county_id": "1",
  "siruta": "71901",
  "longitude": "23.8981836678132710",
  "latitude": "44.2731926426848120",
  "name": "C\u00e2rcea",
  "region": "Sud-Vest - Oltenia"
}, {
  "id": "160",
  "county_id": "1",
  "siruta": "71929",
  "longitude": "23.6150815328591260",
  "latitude": "44.4356770107717480",
  "name": "Co\u021bofenii din Dos",
  "region": "Sud-Vest - Oltenia"
}, {
  "id": "161",
  "county_id": "1",
  "siruta": "71938",
  "longitude": "23.6652338693815590",
  "latitude": "44.3924062413233570",
  "name": "Mih\u0103i\u021ba",
  "region": "Sud-Vest - Oltenia"
}, {
  "id": "162",
  "county_id": "1",
  "siruta": "71947",
  "longitude": "23.6507562559702580",
  "latitude": "44.4103872096828740",
  "name": "Potmel\u021bu",
  "region": "Sud-Vest - Oltenia"
}, {
  "id": "163",
  "county_id": "1",
  "siruta": "71965",
  "longitude": "24.0441192431765670",
  "latitude": "43.9748729566699840",
  "name": "Dane\u021bi",
  "region": "Sud-Vest - Oltenia"
}, {
  "id": "164",
  "county_id": "1",
  "siruta": "71974",
  "longitude": "24.0133851783614990",
  "latitude": "43.9609815761637180",
  "name": "Brabe\u021bi",
  "region": "Sud-Vest - Oltenia"
}, {
  "id": "165",
  "county_id": "1",
  "siruta": "71983",
  "longitude": "24.0119546133466530",
  "latitude": "43.9822529725330330",
  "name": "Brani\u0219te",
  "region": "Sud-Vest - Oltenia"
}, {
  "id": "166",
  "county_id": "1",
  "siruta": "71992",
  "longitude": "23.9975413783153830",
  "latitude": "43.9745564793150050",
  "name": "Locusteni",
  "region": "Sud-Vest - Oltenia"
}, {
  "id": "167",
  "county_id": "1",
  "siruta": "72016",
  "longitude": "24.0910564710164050",
  "latitude": "43.8019252973818710",
  "name": "D\u0103buleni",
  "region": "Sud-Vest - Oltenia"
}, {
  "id": "168",
  "county_id": "1",
  "siruta": "72025",
  "longitude": "24.0820099553710950",
  "latitude": "43.7590150166123450",
  "name": "Chia\u0219u",
  "region": "Sud-Vest - Oltenia"
}, {
  "id": "169",
  "county_id": "1",
  "siruta": "72043",
  "longitude": "23.0323591091685210",
  "latitude": "43.8703801046913920",
  "name": "Desa",
  "region": "Sud-Vest - Oltenia"
}, {
  "id": "170",
  "county_id": "1",
  "siruta": "72061",
  "longitude": "24.1839854103018940",
  "latitude": "44.1066956977200850",
  "name": "Dio\u0219ti",
  "region": "Sud-Vest - Oltenia"
}, {
  "id": "171",
  "county_id": "1",
  "siruta": "72070",
  "longitude": "24.1623757919723050",
  "latitude": "44.1598505867227470",
  "name": "Cioc\u0103ne\u0219ti",
  "region": "Sud-Vest - Oltenia"
}, {
  "id": "172",
  "county_id": "1",
  "siruta": "72089",
  "longitude": "24.1683164941061650",
  "latitude": "44.1211511822639080",
  "name": "Radomir",
  "region": "Sud-Vest - Oltenia"
}, {
  "id": "173",
  "county_id": "1",
  "siruta": "72105",
  "longitude": "23.9509870654022380",
  "latitude": "43.9722499675426520",
  "name": "Dobre\u0219ti",
  "region": "Sud-Vest - Oltenia"
}, {
  "id": "174",
  "county_id": "1",
  "siruta": "72114",
  "longitude": "23.9493065777333920",
  "latitude": "43.9381347786043150",
  "name": "C\u0103ciul\u0103te\u0219ti",
  "region": "Sud-Vest - Oltenia"
}, {
  "id": "175",
  "county_id": "1",
  "siruta": "72123",
  "longitude": "23.9699072554502490",
  "latitude": "43.9812538801210660",
  "name": "Georocel",
  "region": "Sud-Vest - Oltenia"
}, {
  "id": "176",
  "county_id": "1",
  "siruta": "72132",
  "longitude": "23.9498473060975210",
  "latitude": "43.9822918826160320",
  "name": "Murta",
  "region": "Sud-Vest - Oltenia"
}, {
  "id": "177",
  "county_id": "1",
  "siruta": "72141",
  "longitude": "23.9469991372111830",
  "latitude": "43.9646439372735710",
  "name": "Toceni",
  "region": "Sud-Vest - Oltenia"
}, {
  "id": "178",
  "county_id": "1",
  "siruta": "72169",
  "longitude": "24.0979299874495610",
  "latitude": "44.2429774934450390",
  "name": "Dr\u0103gote\u0219ti",
  "region": "Sud-Vest - Oltenia"
}, {
  "id": "179",
  "county_id": "1",
  "siruta": "72178",
  "longitude": "24.0947249786491580",
  "latitude": "44.2590523834316870",
  "name": "Bene\u0219ti",
  "region": "Sud-Vest - Oltenia"
}, {
  "id": "180",
  "county_id": "1",
  "siruta": "72187",
  "longitude": "24.0768841291665190",
  "latitude": "44.2729650988663150",
  "name": "Bobeanu",
  "region": "Sud-Vest - Oltenia"
}, {
  "id": "181",
  "county_id": "1",
  "siruta": "72196",
  "longitude": "24.0352777588630210",
  "latitude": "44.2568392292594690",
  "name": "Buzduc",
  "region": "Sud-Vest - Oltenia"
}, {
  "id": "182",
  "county_id": "1",
  "siruta": "72203",
  "longitude": "24.0686488606315410",
  "latitude": "44.2811320683019500",
  "name": "Pop\u00e2nz\u0103le\u0219ti",
  "region": "Sud-Vest - Oltenia"
}, {
  "id": "183",
  "county_id": "1",
  "siruta": "72212",
  "longitude": "24.1148004536295880",
  "latitude": "44.2334907878371200",
  "name": "Vii\u0219oara",
  "region": "Sud-Vest - Oltenia"
}, {
  "id": "184",
  "county_id": "1",
  "siruta": "72230",
  "longitude": "23.8467802231841970",
  "latitude": "44.0551858669366750",
  "name": "Dr\u0103nic",
  "region": "Sud-Vest - Oltenia"
}, {
  "id": "185",
  "county_id": "1",
  "siruta": "72249",
  "longitude": "23.8357361586780310",
  "latitude": "44.0789573842539180",
  "name": "Booveni",
  "region": "Sud-Vest - Oltenia"
}, {
  "id": "186",
  "county_id": "1",
  "siruta": "72258",
  "longitude": "23.8634798570546920",
  "latitude": "44.1069970234165610",
  "name": "Foi\u0219or",
  "region": "Sud-Vest - Oltenia"
}, {
  "id": "187",
  "county_id": "1",
  "siruta": "72267",
  "longitude": "23.8682654078522170",
  "latitude": "44.0212774261619160",
  "name": "Padea",
  "region": "Sud-Vest - Oltenia"
}, {
  "id": "188",
  "county_id": "1",
  "siruta": "72285",
  "longitude": "23.7456393382373040",
  "latitude": "44.6061409987825710",
  "name": "F\u0103rca\u0219",
  "region": "Sud-Vest - Oltenia"
}, {
  "id": "189",
  "county_id": "1",
  "siruta": "72294",
  "longitude": "23.7276658459733130",
  "latitude": "44.5859680812753540",
  "name": "Am\u0103r\u0103\u0219ti",
  "region": "Sud-Vest - Oltenia"
}, {
  "id": "190",
  "county_id": "1",
  "siruta": "72301",
  "longitude": "23.7398748950841780",
  "latitude": "44.6271734146615060",
  "name": "Golumbelu",
  "region": "Sud-Vest - Oltenia"
}, {
  "id": "191",
  "county_id": "1",
  "siruta": "72310",
  "longitude": "23.7541120799902250",
  "latitude": "44.6337847177901280",
  "name": "Golumbu",
  "region": "Sud-Vest - Oltenia"
}, {
  "id": "192",
  "county_id": "1",
  "siruta": "72329",
  "longitude": "23.7518162057790150",
  "latitude": "44.6594281440397220",
  "name": "Mofle\u0219ti",
  "region": "Sud-Vest - Oltenia"
}, {
  "id": "193",
  "county_id": "1",
  "siruta": "72338",
  "longitude": "23.7333332485859110",
  "latitude": "44.6998856021504810",
  "name": "Nistoi",
  "region": "Sud-Vest - Oltenia"
}, {
  "id": "194",
  "county_id": "1",
  "siruta": "72347",
  "longitude": "23.7367672137131080",
  "latitude": "44.6102811305521530",
  "name": "Plopu Am\u0103r\u0103\u0219ti",
  "region": "Sud-Vest - Oltenia"
}, {
  "id": "195",
  "county_id": "1",
  "siruta": "72356",
  "longitude": "23.7394018370883270",
  "latitude": "44.6688934826665050",
  "name": "Pu\u021binei",
  "region": "Sud-Vest - Oltenia"
}, {
  "id": "196",
  "county_id": "1",
  "siruta": "72365",
  "longitude": "23.7494830444586070",
  "latitude": "44.7023337077001490",
  "name": "Soceni",
  "region": "Sud-Vest - Oltenia"
}, {
  "id": "197",
  "county_id": "1",
  "siruta": "72374",
  "longitude": "23.7455295325349130",
  "latitude": "44.6822731875535770",
  "name": "T\u0103lpa\u0219",
  "region": "Sud-Vest - Oltenia"
}, {
  "id": "198",
  "county_id": "1",
  "siruta": "72392",
  "longitude": "23.3096716444291230",
  "latitude": "44.0980477004648530",
  "name": "Galicea Mare",
  "region": "Sud-Vest - Oltenia"
}, {
  "id": "199",
  "county_id": "1",
  "siruta": "72418",
  "longitude": "23.8972818269553180",
  "latitude": "44.3556146934956810",
  "name": "Gherce\u0219ti",
  "region": "Sud-Vest - Oltenia"
}, {
  "id": "200",
  "county_id": "1",
  "siruta": "72427",
  "longitude": "23.9163075968912580",
  "latitude": "44.3497604649259150",
  "name": "G\u00e2rle\u0219ti",
  "region": "Sud-Vest - Oltenia"
}, {
  "id": "201",
  "county_id": "1",
  "siruta": "72436",
  "longitude": "23.9524462038504820",
  "latitude": "44.4050835363339760",
  "name": "Lunc\u0219oru",
  "region": "Sud-Vest - Oltenia"
}, {
  "id": "202",
  "county_id": "1",
  "siruta": "72445",
  "longitude": "23.9421146392650930",
  "latitude": "44.4022869525488490",
  "name": "Ungureni",
  "region": "Sud-Vest - Oltenia"
}, {
  "id": "203",
  "county_id": "1",
  "siruta": "72454",
  "longitude": "23.9159163619643320",
  "latitude": "44.4155828528767100",
  "name": "Ungurenii Mici",
  "region": "Sud-Vest - Oltenia"
}, {
  "id": "204",
  "county_id": "1",
  "siruta": "72472",
  "longitude": "23.7992040564710480",
  "latitude": "43.8470729841604620",
  "name": "Gighera",
  "region": "Sud-Vest - Oltenia"
}, {
  "id": "205",
  "county_id": "1",
  "siruta": "72481",
  "longitude": "23.7764255849108470",
  "latitude": "43.8499224858891670",
  "name": "Nedeia",
  "region": "Sud-Vest - Oltenia"
}, {
  "id": "206",
  "county_id": "1",
  "siruta": "72490",
  "longitude": "23.8420784635872030",
  "latitude": "43.8471731427155050",
  "name": "Z\u0103val",
  "region": "Sud-Vest - Oltenia"
}, {
  "id": "207",
  "county_id": "1",
  "siruta": "72515",
  "longitude": "23.4116363587550720",
  "latitude": "44.1282108952585970",
  "name": "Giubega",
  "region": "Sud-Vest - Oltenia"
}, {
  "id": "208",
  "county_id": "1",
  "siruta": "72524",
  "longitude": "23.3912816331416490",
  "latitude": "44.1032874689182680",
  "name": "Galiciuica",
  "region": "Sud-Vest - Oltenia"
}, {
  "id": "209",
  "county_id": "1",
  "siruta": "72542",
  "longitude": "23.6292506875698190",
  "latitude": "44.0173889558917320",
  "name": "Giurgi\u021ba",
  "region": "Sud-Vest - Oltenia"
}, {
  "id": "210",
  "county_id": "1",
  "siruta": "72551",
  "longitude": "23.6388374226845140",
  "latitude": "44.0030967619918700",
  "name": "Curm\u0103tura",
  "region": "Sud-Vest - Oltenia"
}, {
  "id": "211",
  "county_id": "1",
  "siruta": "72560",
  "longitude": "23.6234223938494310",
  "latitude": "44.0011447491757510",
  "name": "Filaret",
  "region": "Sud-Vest - Oltenia"
}, {
  "id": "212",
  "county_id": "1",
  "siruta": "72588",
  "longitude": "23.8596618029373810",
  "latitude": "43.8983718973911080",
  "name": "G\u00e2ngiova",
  "region": "Sud-Vest - Oltenia"
}, {
  "id": "213",
  "county_id": "1",
  "siruta": "72597",
  "longitude": "23.8635558606737560",
  "latitude": "43.8740495947493800",
  "name": "Como\u0219teni",
  "region": "Sud-Vest - Oltenia"
}, {
  "id": "214",
  "county_id": "1",
  "siruta": "72613",
  "longitude": "23.3661546919955430",
  "latitude": "44.4263828359694980",
  "name": "Gogo\u0219u",
  "region": "Sud-Vest - Oltenia"
}, {
  "id": "215",
  "county_id": "1",
  "siruta": "72622",
  "longitude": "23.3591442666385230",
  "latitude": "44.3990001884728610",
  "name": "Gogo\u0219i\u021ba",
  "region": "Sud-Vest - Oltenia"
}, {
  "id": "216",
  "county_id": "1",
  "siruta": "72631",
  "longitude": "23.4099583782807880",
  "latitude": "44.4261277235468480",
  "name": "\u0218tef\u0103nel",
  "region": "Sud-Vest - Oltenia"
}, {
  "id": "217",
  "county_id": "1",
  "siruta": "72659",
  "longitude": "23.6184465811993220",
  "latitude": "43.9262316033449950",
  "name": "Goicea",
  "region": "Sud-Vest - Oltenia"
}, {
  "id": "218",
  "county_id": "1",
  "siruta": "72668",
  "longitude": "23.6015346682577560",
  "latitude": "43.8861347818290210",
  "name": "C\u00e2rna",
  "region": "Sud-Vest - Oltenia"
}, {
  "id": "219",
  "county_id": "1",
  "siruta": "72686",
  "longitude": "23.7585204335604770",
  "latitude": "44.4831422559041700",
  "name": "Goie\u0219ti",
  "region": "Sud-Vest - Oltenia"
}, {
  "id": "220",
  "county_id": "1",
  "siruta": "72695",
  "longitude": "23.7401328908850290",
  "latitude": "44.4823351655386430",
  "name": "Ad\u00e2ncata",
  "region": "Sud-Vest - Oltenia"
}, {
  "id": "221",
  "county_id": "1",
  "siruta": "72702",
  "longitude": "23.7637602651251600",
  "latitude": "44.4738666524608560",
  "name": "F\u00e2nt\u00e2ni",
  "region": "Sud-Vest - Oltenia"
}, {
  "id": "222",
  "county_id": "1",
  "siruta": "72711",
  "longitude": "23.8022063811483700",
  "latitude": "44.5062235153106870",
  "name": "Grui\u021ba",
  "region": "Sud-Vest - Oltenia"
}, {
  "id": "223",
  "county_id": "1",
  "siruta": "72720",
  "longitude": "23.7414491410788850",
  "latitude": "44.4628914036223860",
  "name": "M\u0103l\u0103e\u0219ti",
  "region": "Sud-Vest - Oltenia"
}, {
  "id": "224",
  "county_id": "1",
  "siruta": "72739",
  "longitude": "23.7704155396170550",
  "latitude": "44.4694573775940820",
  "name": "Mogo\u0219e\u0219ti",
  "region": "Sud-Vest - Oltenia"
}, {
  "id": "225",
  "county_id": "1",
  "siruta": "72748",
  "longitude": "23.7567337767664920",
  "latitude": "44.5112392352812020",
  "name": "Muereni",
  "region": "Sud-Vest - Oltenia"
}, {
  "id": "226",
  "county_id": "1",
  "siruta": "72757",
  "longitude": "23.7444965829811530",
  "latitude": "44.4782257670129160",
  "name": "Piore\u0219ti",
  "region": "Sud-Vest - Oltenia"
}, {
  "id": "227",
  "county_id": "1",
  "siruta": "72766",
  "longitude": "23.7329991301035970",
  "latitude": "44.5106689315866650",
  "name": "Pomete\u0219ti",
  "region": "Sud-Vest - Oltenia"
}, {
  "id": "228",
  "county_id": "1",
  "siruta": "72775",
  "longitude": "23.7356486014669980",
  "latitude": "44.4947952618805260",
  "name": "Popeasa",
  "region": "Sud-Vest - Oltenia"
}, {
  "id": "229",
  "county_id": "1",
  "siruta": "72784",
  "longitude": "23.7379491135675810",
  "latitude": "44.4890699000394180",
  "name": "\u021aand\u0103ra",
  "region": "Sud-Vest - Oltenia"
}, {
  "id": "230",
  "county_id": "1",
  "siruta": "72793",
  "longitude": "23.7636413713539590",
  "latitude": "44.5023239997689330",
  "name": "Vladimir",
  "region": "Sud-Vest - Oltenia"
}, {
  "id": "231",
  "county_id": "1",
  "siruta": "72800",
  "longitude": "23.7507837253965130",
  "latitude": "44.4572171582645340",
  "name": "Zl\u0103tari",
  "region": "Sud-Vest - Oltenia"
}, {
  "id": "232",
  "county_id": "1",
  "siruta": "72828",
  "longitude": "23.2811928962969540",
  "latitude": "44.4476919239821700",
  "name": "Grece\u0219ti",
  "region": "Sud-Vest - Oltenia"
}, {
  "id": "233",
  "county_id": "1",
  "siruta": "72837",
  "longitude": "23.3226108544365620",
  "latitude": "44.4462371497430550",
  "name": "B\u0103rboi",
  "region": "Sud-Vest - Oltenia"
}, {
  "id": "234",
  "county_id": "1",
  "siruta": "72846",
  "longitude": "23.2261632431486190",
  "latitude": "44.4508261163171880",
  "name": "Busu",
  "region": "Sud-Vest - Oltenia"
}, {
  "id": "235",
  "county_id": "1",
  "siruta": "72855",
  "longitude": "23.2479831921449000",
  "latitude": "44.4626435337349190",
  "name": "Busule\u021bu",
  "region": "Sud-Vest - Oltenia"
}, {
  "id": "236",
  "county_id": "1",
  "siruta": "72864",
  "longitude": "23.2648160692612440",
  "latitude": "44.4520402008866210",
  "name": "Gr\u0103di\u0219tea",
  "region": "Sud-Vest - Oltenia"
}, {
  "id": "237",
  "county_id": "1",
  "siruta": "72873",
  "longitude": "23.2408877559519560",
  "latitude": "44.4686534686747660",
  "name": "Gropanele",
  "region": "Sud-Vest - Oltenia"
}, {
  "id": "238",
  "county_id": "1",
  "siruta": "72891",
  "longitude": "23.2959333194070130",
  "latitude": "44.1480533253035650",
  "name": "Izvoare",
  "region": "Sud-Vest - Oltenia"
}, {
  "id": "239",
  "county_id": "1",
  "siruta": "72908",
  "longitude": "23.3179492919858970",
  "latitude": "44.1773664236560180",
  "name": "Corlate",
  "region": "Sud-Vest - Oltenia"
}, {
  "id": "240",
  "county_id": "1",
  "siruta": "72917",
  "longitude": "23.3188017143147310",
  "latitude": "44.1400544731543220",
  "name": "Domnu Tudor",
  "region": "Sud-Vest - Oltenia"
}, {
  "id": "241",
  "county_id": "1",
  "siruta": "72935",
  "longitude": "24.0011046395526260",
  "latitude": "44.1890421294517920",
  "name": "Leu",
  "region": "Sud-Vest - Oltenia"
}, {
  "id": "242",
  "county_id": "1",
  "siruta": "72944",
  "longitude": "24.0983163091648400",
  "latitude": "44.1551069963345530",
  "name": "Z\u0103noaga",
  "region": "Sud-Vest - Oltenia"
}, {
  "id": "243",
  "county_id": "1",
  "siruta": "72962",
  "longitude": "23.6309546796135020",
  "latitude": "44.1032785701933250",
  "name": "Lipovu",
  "region": "Sud-Vest - Oltenia"
}, {
  "id": "244",
  "county_id": "1",
  "siruta": "72971",
  "longitude": "23.6237562809627060",
  "latitude": "44.1235666990855290",
  "name": "Lipovu de Sus",
  "region": "Sud-Vest - Oltenia"
}, {
  "id": "245",
  "county_id": "1",
  "siruta": "72999",
  "longitude": "23.7142653949276510",
  "latitude": "43.8780075807673810",
  "name": "M\u0103ce\u0219u de Jos",
  "region": "Sud-Vest - Oltenia"
}, {
  "id": "246",
  "county_id": "1",
  "siruta": "73004",
  "longitude": "23.6648083253633920",
  "latitude": "43.8813173405778580",
  "name": "S\u0103pata",
  "region": "Sud-Vest - Oltenia"
}, {
  "id": "247",
  "county_id": "1",
  "siruta": "73022",
  "longitude": "23.7112633417976080",
  "latitude": "43.9166718665587010",
  "name": "M\u0103ce\u0219u de Sus",
  "region": "Sud-Vest - Oltenia"
}, {
  "id": "248",
  "county_id": "1",
  "siruta": "73040",
  "longitude": "23.0981477115313890",
  "latitude": "44.0314536288881370",
  "name": "Maglavit",
  "region": "Sud-Vest - Oltenia"
}, {
  "id": "249",
  "county_id": "1",
  "siruta": "73059",
  "longitude": "23.0989304777453770",
  "latitude": "44.0553183710015550",
  "name": "Hunia",
  "region": "Sud-Vest - Oltenia"
}, {
  "id": "250",
  "county_id": "1",
  "siruta": "73077",
  "longitude": "23.8572476324123490",
  "latitude": "44.2375673237466810",
  "name": "Malu Mare",
  "region": "Sud-Vest - Oltenia"
}, {
  "id": "251",
  "county_id": "1",
  "siruta": "73086",
  "longitude": "23.9233638898522120",
  "latitude": "44.2122280688201390",
  "name": "Ghindeni",
  "region": "Sud-Vest - Oltenia"
}, {
  "id": "252",
  "county_id": "1",
  "siruta": "73095",
  "longitude": "23.8502432066181310",
  "latitude": "44.2651078489987880",
  "name": "Preajba",
  "region": "Sud-Vest - Oltenia"
}, {
  "id": "253",
  "county_id": "1",
  "siruta": "73111",
  "longitude": "23.7095155188924660",
  "latitude": "44.5720004216295750",
  "name": "Meline\u0219ti",
  "region": "Sud-Vest - Oltenia"
}, {
  "id": "254",
  "county_id": "1",
  "siruta": "73120",
  "longitude": "23.6845378354582540",
  "latitude": "44.5867423659217720",
  "name": "Bod\u0103ie\u0219ti",
  "region": "Sud-Vest - Oltenia"
}, {
  "id": "255",
  "county_id": "1",
  "siruta": "73139",
  "longitude": "23.6472442498422740",
  "latitude": "44.5680215259953980",
  "name": "Bod\u0103ie\u0219tii de Sus",
  "region": "Sud-Vest - Oltenia"
}, {
  "id": "256",
  "county_id": "1",
  "siruta": "73148",
  "longitude": "23.7396916660352590",
  "latitude": "44.5480499861287460",
  "name": "Godeni",
  "region": "Sud-Vest - Oltenia"
}, {
  "id": "257",
  "county_id": "1",
  "siruta": "73157",
  "longitude": "23.6913444952815840",
  "latitude": "44.5654278083944530",
  "name": "Muieru\u0219u",
  "region": "Sud-Vest - Oltenia"
}, {
  "id": "258",
  "county_id": "1",
  "siruta": "73166",
  "longitude": "23.7268970611390450",
  "latitude": "44.5358368911715560",
  "name": "Negoie\u0219ti",
  "region": "Sud-Vest - Oltenia"
}, {
  "id": "259",
  "county_id": "1",
  "siruta": "73175",
  "longitude": "23.6799209259131020",
  "latitude": "44.5738719644659010",
  "name": "Odoleni",
  "region": "Sud-Vest - Oltenia"
}, {
  "id": "260",
  "county_id": "1",
  "siruta": "73184",
  "longitude": "23.6601930599927710",
  "latitude": "44.5910549797575800",
  "name": "Ohaba",
  "region": "Sud-Vest - Oltenia"
}, {
  "id": "261",
  "county_id": "1",
  "siruta": "73193",
  "longitude": "23.7058503713663630",
  "latitude": "44.5417714507751230",
  "name": "Plo\u0219tina",
  "region": "Sud-Vest - Oltenia"
}, {
  "id": "262",
  "county_id": "1",
  "siruta": "73200",
  "longitude": "23.6888977693829150",
  "latitude": "44.5711505859168970",
  "name": "Pope\u0219ti",
  "region": "Sud-Vest - Oltenia"
}, {
  "id": "263",
  "county_id": "1",
  "siruta": "73219",
  "longitude": "23.7309520358618720",
  "latitude": "44.5591392880880410",
  "name": "Spineni",
  "region": "Sud-Vest - Oltenia"
}, {
  "id": "264",
  "county_id": "1",
  "siruta": "73228",
  "longitude": "23.6953610070907250",
  "latitude": "44.5492828093424650",
  "name": "Valea Mare",
  "region": "Sud-Vest - Oltenia"
}, {
  "id": "265",
  "county_id": "1",
  "siruta": "73237",
  "longitude": "23.6785471156801960",
  "latitude": "44.5580063145046100",
  "name": "Valea Muierii de Jos",
  "region": "Sud-Vest - Oltenia"
}, {
  "id": "266",
  "county_id": "1",
  "siruta": "73255",
  "longitude": "23.8533744286523730",
  "latitude": "44.3931832741477660",
  "name": "Mischii",
  "region": "Sud-Vest - Oltenia"
}, {
  "id": "267",
  "county_id": "1",
  "siruta": "73264",
  "longitude": "23.8770717111899020",
  "latitude": "44.4534076000951260",
  "name": "C\u0103line\u0219ti",
  "region": "Sud-Vest - Oltenia"
}, {
  "id": "268",
  "county_id": "1",
  "siruta": "73273",
  "longitude": "23.8870054213407850",
  "latitude": "44.4549911888751620",
  "name": "Gogo\u0219e\u0219ti",
  "region": "Sud-Vest - Oltenia"
}, {
  "id": "269",
  "county_id": "1",
  "siruta": "73282",
  "longitude": "23.8728153154716690",
  "latitude": "44.3771884610509350",
  "name": "Mlec\u0103ne\u0219ti",
  "region": "Sud-Vest - Oltenia"
}, {
  "id": "270",
  "county_id": "1",
  "siruta": "73291",
  "longitude": "23.8430354116942060",
  "latitude": "44.4281508911937660",
  "name": "Motoci",
  "region": "Sud-Vest - Oltenia"
}, {
  "id": "271",
  "county_id": "1",
  "siruta": "73308",
  "longitude": "23.8410022961682590",
  "latitude": "44.4186708783168950",
  "name": "Ureche\u0219ti",
  "region": "Sud-Vest - Oltenia"
}, {
  "id": "272",
  "county_id": "1",
  "siruta": "73326",
  "longitude": "24.0191906122420990",
  "latitude": "44.0115651430046810",
  "name": "M\u00e2r\u0219ani",
  "region": "Sud-Vest - Oltenia"
}, {
  "id": "273",
  "county_id": "1",
  "siruta": "73344",
  "longitude": "23.2028965696432290",
  "latitude": "44.0961288211416330",
  "name": "Mo\u021b\u0103\u021bei",
  "region": "Sud-Vest - Oltenia"
}, {
  "id": "274",
  "county_id": "1",
  "siruta": "73353",
  "longitude": "23.1696928024463100",
  "latitude": "44.1186609496552650",
  "name": "Dobridor",
  "region": "Sud-Vest - Oltenia"
}, {
  "id": "275",
  "county_id": "1",
  "siruta": "73362",
  "longitude": "23.1930936662324000",
  "latitude": "44.0388365634856880",
  "name": "Mo\u021b\u0103\u021bei Gar\u0103",
  "region": "Sud-Vest - Oltenia"
}, {
  "id": "276",
  "county_id": "1",
  "siruta": "73380",
  "longitude": "23.8147948262027460",
  "latitude": "44.5472984152187050",
  "name": "Balota de Jos",
  "region": "Sud-Vest - Oltenia"
}, {
  "id": "277",
  "county_id": "1",
  "siruta": "73399",
  "longitude": "23.7934449360789700",
  "latitude": "44.5607432929975500",
  "name": "Balota de Sus",
  "region": "Sud-Vest - Oltenia"
}, {
  "id": "278",
  "county_id": "1",
  "siruta": "73406",
  "longitude": "23.8336998109303620",
  "latitude": "44.5323032615101510",
  "name": "Bu\u0219teni",
  "region": "Sud-Vest - Oltenia"
}, {
  "id": "279",
  "county_id": "1",
  "siruta": "73415",
  "longitude": "23.8461949566844890",
  "latitude": "44.5159075507591100",
  "name": "Gaia",
  "region": "Sud-Vest - Oltenia"
}, {
  "id": "280",
  "county_id": "1",
  "siruta": "73424",
  "longitude": "23.8669794072586790",
  "latitude": "44.4996751431369190",
  "name": "Murga\u0219i",
  "region": "Sud-Vest - Oltenia"
}, {
  "id": "281",
  "county_id": "1",
  "siruta": "73433",
  "longitude": "23.8819523496541560",
  "latitude": "44.4888535332426470",
  "name": "Pic\u0103turile",
  "region": "Sud-Vest - Oltenia"
}, {
  "id": "282",
  "county_id": "1",
  "siruta": "73442",
  "longitude": "23.8133007133867450",
  "latitude": "44.6021479357579620",
  "name": "Rupturile",
  "region": "Sud-Vest - Oltenia"
}, {
  "id": "283",
  "county_id": "1",
  "siruta": "73451",
  "longitude": "23.7891865297458410",
  "latitude": "44.6004516447117540",
  "name": "Velesti",
  "region": "Sud-Vest - Oltenia"
}, {
  "id": "284",
  "county_id": "1",
  "siruta": "73479",
  "longitude": "23.3728781439830300",
  "latitude": "43.9139644761144300",
  "name": "Negoi",
  "region": "Sud-Vest - Oltenia"
}, {
  "id": "285",
  "county_id": "1",
  "siruta": "73488",
  "longitude": "23.4133832429548610",
  "latitude": "43.9261729468118670",
  "name": "Catane",
  "region": "Sud-Vest - Oltenia"
}, {
  "id": "286",
  "county_id": "1",
  "siruta": "73497",
  "longitude": "23.4143048961444040",
  "latitude": "43.9431870770030880",
  "name": "Catanele Noi",
  "region": "Sud-Vest - Oltenia"
}, {
  "id": "287",
  "county_id": "1",
  "siruta": "73512",
  "longitude": "23.2479713099334260",
  "latitude": "44.2448183921677800",
  "name": "Orodel",
  "region": "Sud-Vest - Oltenia"
}, {
  "id": "288",
  "county_id": "1",
  "siruta": "73521",
  "longitude": "23.2954363110480890",
  "latitude": "44.2943758561863630",
  "name": "Bechet",
  "region": "Sud-Vest - Oltenia"
}, {
  "id": "289",
  "county_id": "1",
  "siruta": "73530",
  "longitude": "23.2557285099528630",
  "latitude": "44.2942172039780640",
  "name": "C\u0103lug\u0103rei",
  "region": "Sud-Vest - Oltenia"
}, {
  "id": "290",
  "county_id": "1",
  "siruta": "73549",
  "longitude": "23.2756381523621700",
  "latitude": "44.2339953962191000",
  "name": "Cornu",
  "region": "Sud-Vest - Oltenia"
}, {
  "id": "291",
  "county_id": "1",
  "siruta": "73558",
  "longitude": "23.2947254126855260",
  "latitude": "44.2533136017072050",
  "name": "Teiu",
  "region": "Sud-Vest - Oltenia"
}, {
  "id": "292",
  "county_id": "1",
  "siruta": "73576",
  "longitude": "23.8955605428582660",
  "latitude": "43.8082412483943950",
  "name": "Ostroveni",
  "region": "Sud-Vest - Oltenia"
}, {
  "id": "293",
  "county_id": "1",
  "siruta": "73585",
  "longitude": "23.9202234420073660",
  "latitude": "43.8341750331890840",
  "name": "Li\u0219teava",
  "region": "Sud-Vest - Oltenia"
}, {
  "id": "294",
  "county_id": "1",
  "siruta": "73601",
  "longitude": "23.4750935350511580",
  "latitude": "44.1433105395348090",
  "name": "Peri\u0219or",
  "region": "Sud-Vest - Oltenia"
}, {
  "id": "295",
  "county_id": "1",
  "siruta": "73610",
  "longitude": "23.5091912929382190",
  "latitude": "44.1735408234781840",
  "name": "M\u0103r\u0103cinele",
  "region": "Sud-Vest - Oltenia"
}, {
  "id": "296",
  "county_id": "1",
  "siruta": "73638",
  "longitude": "23.9496379076886970",
  "latitude": "44.3398254548078650",
  "name": "Piele\u0219ti",
  "region": "Sud-Vest - Oltenia"
}, {
  "id": "297",
  "county_id": "1",
  "siruta": "73647",
  "longitude": "24.0150402895748240",
  "latitude": "44.3676415940742360",
  "name": "C\u00e2mpeni",
  "region": "Sud-Vest - Oltenia"
}, {
  "id": "298",
  "county_id": "1",
  "siruta": "73656",
  "longitude": "23.9624176226449630",
  "latitude": "44.3614899110756440",
  "name": "L\u00e2nga",
  "region": "Sud-Vest - Oltenia"
}, {
  "id": "299",
  "county_id": "1",
  "siruta": "73674",
  "longitude": "23.1647630700645660",
  "latitude": "43.8988349875857580",
  "name": "Piscu Vechi",
  "region": "Sud-Vest - Oltenia"
}, {
  "id": "300",
  "county_id": "1",
  "siruta": "73683",
  "longitude": "23.1968044701496470",
  "latitude": "43.8914616801485660",
  "name": "Ghidici",
  "region": "Sud-Vest - Oltenia"
}, {
  "id": "301",
  "county_id": "1",
  "siruta": "73692",
  "longitude": "23.1468688092015360",
  "latitude": "43.8510371484465440",
  "name": "Piscule\u021b",
  "region": "Sud-Vest - Oltenia"
}, {
  "id": "302",
  "county_id": "1",
  "siruta": "73718",
  "longitude": "23.1880693778209060",
  "latitude": "44.2219795310065960",
  "name": "Pleni\u021ba",
  "region": "Sud-Vest - Oltenia"
}, {
  "id": "303",
  "county_id": "1",
  "siruta": "73727",
  "longitude": "23.1392055033033620",
  "latitude": "44.2286519288359230",
  "name": "Castrele Traiane",
  "region": "Sud-Vest - Oltenia"
}, {
  "id": "304",
  "county_id": "1",
  "siruta": "73745",
  "longitude": "23.0662531786388630",
  "latitude": "43.9211923062091500",
  "name": "Poiana Mare",
  "region": "Sud-Vest - Oltenia"
}, {
  "id": "305",
  "county_id": "1",
  "siruta": "73754",
  "longitude": "23.1357094623543700",
  "latitude": "43.9302078776376280",
  "name": "Tunarii Noi",
  "region": "Sud-Vest - Oltenia"
}, {
  "id": "306",
  "county_id": "1",
  "siruta": "73763",
  "longitude": "23.1171243981617880",
  "latitude": "43.9109605703177830",
  "name": "Tunarii Vechi",
  "region": "Sud-Vest - Oltenia"
}, {
  "id": "307",
  "county_id": "1",
  "siruta": "73781",
  "longitude": "23.6055743252546610",
  "latitude": "44.3605602205239860",
  "name": "Prede\u0219ti",
  "region": "Sud-Vest - Oltenia"
}, {
  "id": "308",
  "county_id": "1",
  "siruta": "73790",
  "longitude": "23.5619655012697110",
  "latitude": "44.3353237099822760",
  "name": "Bucicani",
  "region": "Sud-Vest - Oltenia"
}, {
  "id": "309",
  "county_id": "1",
  "siruta": "73807",
  "longitude": "23.5776818464147270",
  "latitude": "44.3443707181351740",
  "name": "C\u00e2rstovani",
  "region": "Sud-Vest - Oltenia"
}, {
  "id": "310",
  "county_id": "1",
  "siruta": "73816",
  "longitude": "23.4958773250999360",
  "latitude": "44.3581218095383110",
  "name": "Frasin",
  "region": "Sud-Vest - Oltenia"
}, {
  "id": "311",
  "county_id": "1",
  "siruta": "73825",
  "longitude": "23.5643413947031280",
  "latitude": "44.3619229504574340",
  "name": "Milovan",
  "region": "Sud-Vest - Oltenia"
}, {
  "id": "312",
  "county_id": "1",
  "siruta": "73834",
  "longitude": "23.5334475028914730",
  "latitude": "44.3507692795496950",
  "name": "Ple\u0219oi",
  "region": "Sud-Vest - Oltenia"
}, {
  "id": "313",
  "county_id": "1",
  "siruta": "73843",
  "longitude": "23.5876407207376670",
  "latitude": "44.3433170940462920",
  "name": "Prede\u0219tii Mici",
  "region": "Sud-Vest - Oltenia"
}, {
  "id": "314",
  "county_id": "1",
  "siruta": "73861",
  "longitude": "23.6053728656050520",
  "latitude": "44.1608163585250040",
  "name": "Radovan",
  "region": "Sud-Vest - Oltenia"
}, {
  "id": "315",
  "county_id": "1",
  "siruta": "73870",
  "longitude": "23.6011552436150080",
  "latitude": "44.1927413925447750",
  "name": "F\u00e2nt\u00e2nele",
  "region": "Sud-Vest - Oltenia"
}, {
  "id": "316",
  "county_id": "1",
  "siruta": "73889",
  "longitude": "23.5757419727809820",
  "latitude": "44.1122580993251460",
  "name": "\u00centorsura",
  "region": "Sud-Vest - Oltenia"
}, {
  "id": "317",
  "county_id": "1",
  "siruta": "73898",
  "longitude": "23.5490202885092050",
  "latitude": "44.1770501709079890",
  "name": "T\u00e2rnava",
  "region": "Sud-Vest - Oltenia"
}, {
  "id": "318",
  "county_id": "1",
  "siruta": "73914",
  "longitude": "23.2840862294069630",
  "latitude": "43.8871254618772540",
  "name": "Rast",
  "region": "Sud-Vest - Oltenia"
}, {
  "id": "319",
  "county_id": "1",
  "siruta": "73932",
  "longitude": "24.0166392793325510",
  "latitude": "44.3111270781228510",
  "name": "Rob\u0103ne\u0219tii de Jos",
  "region": "Sud-Vest - Oltenia"
}, {
  "id": "320",
  "county_id": "1",
  "siruta": "73941",
  "longitude": "24.0377388327195690",
  "latitude": "44.3063235551236970",
  "name": "Bojoiu",
  "region": "Sud-Vest - Oltenia"
}, {
  "id": "321",
  "county_id": "1",
  "siruta": "73950",
  "longitude": "24.0209543111709610",
  "latitude": "44.2908789557734580",
  "name": "Golfin",
  "region": "Sud-Vest - Oltenia"
}, {
  "id": "322",
  "county_id": "1",
  "siruta": "73969",
  "longitude": "23.9910052545764040",
  "latitude": "44.2946373010852880",
  "name": "L\u0103cri\u021ba Mare",
  "region": "Sud-Vest - Oltenia"
}, {
  "id": "323",
  "county_id": "1",
  "siruta": "73978",
  "longitude": "23.9617268108327970",
  "latitude": "44.2964138989088100",
  "name": "L\u0103cri\u021ba Mic\u0103",
  "region": "Sud-Vest - Oltenia"
}, {
  "id": "324",
  "county_id": "1",
  "siruta": "73987",
  "longitude": "24.0068521696742890",
  "latitude": "44.3219850124234110",
  "name": "Rob\u0103ne\u0219tii de Sus",
  "region": "Sud-Vest - Oltenia"
}, {
  "id": "325",
  "county_id": "1",
  "siruta": "74000",
  "longitude": "23.9555699234428520",
  "latitude": "43.8976863283060010",
  "name": "Sadova",
  "region": "Sud-Vest - Oltenia"
}, {
  "id": "326",
  "county_id": "1",
  "siruta": "74019",
  "longitude": "23.9368728739948190",
  "latitude": "43.8772887016751840",
  "name": "Piscu Sadovei",
  "region": "Sud-Vest - Oltenia"
}, {
  "id": "327",
  "county_id": "1",
  "siruta": "74037",
  "longitude": "23.4396281720164690",
  "latitude": "44.2443020715802080",
  "name": "S\u0103lcu\u021ba",
  "region": "Sud-Vest - Oltenia"
}, {
  "id": "328",
  "county_id": "1",
  "siruta": "74046",
  "longitude": "23.4781193659989210",
  "latitude": "44.1958860010424320",
  "name": "M\u00e2rza",
  "region": "Sud-Vest - Oltenia"
}, {
  "id": "329",
  "county_id": "1",
  "siruta": "74055",
  "longitude": "23.4140085592014020",
  "latitude": "44.2499019031770970",
  "name": "Plop\u0219or",
  "region": "Sud-Vest - Oltenia"
}, {
  "id": "330",
  "county_id": "1",
  "siruta": "74064",
  "longitude": "23.4864075048841200",
  "latitude": "44.2278498906280010",
  "name": "Tenc\u0103n\u0103u",
  "region": "Sud-Vest - Oltenia"
}, {
  "id": "331",
  "county_id": "1",
  "siruta": "74082",
  "longitude": "23.5751629259354300",
  "latitude": "44.4595341001192640",
  "name": "Sc\u0103e\u0219ti",
  "region": "Sud-Vest - Oltenia"
}, {
  "id": "332",
  "county_id": "1",
  "siruta": "74091",
  "longitude": "23.5212760130483010",
  "latitude": "44.4722953306120490",
  "name": "Valea lui P\u0103tru",
  "region": "Sud-Vest - Oltenia"
}, {
  "id": "333",
  "county_id": "1",
  "siruta": "74117",
  "longitude": "23.2199268820294830",
  "latitude": "43.9324853023710060",
  "name": "Seaca de C\u00e2mp",
  "region": "Sud-Vest - Oltenia"
}, {
  "id": "334",
  "county_id": "1",
  "siruta": "74126",
  "longitude": "23.1791666897769840",
  "latitude": "43.9240006489722750",
  "name": "Piscu Nou",
  "region": "Sud-Vest - Oltenia"
}, {
  "id": "335",
  "county_id": "1",
  "siruta": "74144",
  "longitude": "23.3058731606544070",
  "latitude": "44.3661060882744560",
  "name": "Seaca de P\u0103dure",
  "region": "Sud-Vest - Oltenia"
}, {
  "id": "336",
  "county_id": "1",
  "siruta": "74153",
  "longitude": "23.3589090989681020",
  "latitude": "44.3647856690238100",
  "name": "R\u0103chita de Sus",
  "region": "Sud-Vest - Oltenia"
}, {
  "id": "337",
  "county_id": "1",
  "siruta": "74162",
  "longitude": "23.3059881927631910",
  "latitude": "44.3823359135530570",
  "name": "Veleni",
  "region": "Sud-Vest - Oltenia"
}, {
  "id": "338",
  "county_id": "1",
  "siruta": "74180",
  "longitude": "23.2916242430758440",
  "latitude": "44.4743846121221440",
  "name": "Secu",
  "region": "Sud-Vest - Oltenia"
}, {
  "id": "339",
  "county_id": "1",
  "siruta": "74199",
  "longitude": "23.3312308043470790",
  "latitude": "44.4853739313746390",
  "name": "Com\u0103nicea",
  "region": "Sud-Vest - Oltenia"
}, {
  "id": "340",
  "county_id": "1",
  "siruta": "74206",
  "longitude": "23.2686040998190220",
  "latitude": "44.4904325200833030",
  "name": "Smadovicioara de Secu",
  "region": "Sud-Vest - Oltenia"
}, {
  "id": "341",
  "county_id": "1",
  "siruta": "74215",
  "longitude": "23.2895571538995580",
  "latitude": "44.4639574583995910",
  "name": "\u0218umandra",
  "region": "Sud-Vest - Oltenia"
}, {
  "id": "342",
  "county_id": "1",
  "siruta": "74233",
  "longitude": "23.4819443994085690",
  "latitude": "44.0448785074021740",
  "name": "Sili\u0219tea Crucii",
  "region": "Sud-Vest - Oltenia"
}, {
  "id": "343",
  "county_id": "1",
  "siruta": "74251",
  "longitude": "23.4938439514090900",
  "latitude": "44.4126820728915350",
  "name": "Sopot",
  "region": "Sud-Vest - Oltenia"
}, {
  "id": "344",
  "county_id": "1",
  "siruta": "74260",
  "longitude": "23.5202922710872610",
  "latitude": "44.3884796432858980",
  "name": "Ba\u0219cov",
  "region": "Sud-Vest - Oltenia"
}, {
  "id": "345",
  "county_id": "1",
  "siruta": "74279",
  "longitude": "23.5380943018856070",
  "latitude": "44.3952824609893570",
  "name": "Belo\u021b",
  "region": "Sud-Vest - Oltenia"
}, {
  "id": "346",
  "county_id": "1",
  "siruta": "74288",
  "longitude": "23.4229683036220530",
  "latitude": "44.4027113355424920",
  "name": "Cernat",
  "region": "Sud-Vest - Oltenia"
}, {
  "id": "347",
  "county_id": "1",
  "siruta": "74297",
  "longitude": "23.5608660657255130",
  "latitude": "44.3871784960125950",
  "name": "Pereni",
  "region": "Sud-Vest - Oltenia"
}, {
  "id": "348",
  "county_id": "1",
  "siruta": "74304",
  "longitude": "23.5058766278432780",
  "latitude": "44.3775427983882550",
  "name": "Pietroaia",
  "region": "Sud-Vest - Oltenia"
}, {
  "id": "349",
  "county_id": "1",
  "siruta": "74313",
  "longitude": "23.5456862016770780",
  "latitude": "44.3704048042179200",
  "name": "S\u00e2rsca",
  "region": "Sud-Vest - Oltenia"
}, {
  "id": "350",
  "county_id": "1",
  "siruta": "74331",
  "longitude": "23.8646074496618040",
  "latitude": "44.1645445232069560",
  "name": "Teasc",
  "region": "Sud-Vest - Oltenia"
}, {
  "id": "351",
  "county_id": "1",
  "siruta": "74340",
  "longitude": "23.8631863641899500",
  "latitude": "44.1918628550910240",
  "name": "Secui",
  "region": "Sud-Vest - Oltenia"
}, {
  "id": "352",
  "county_id": "1",
  "siruta": "74368",
  "longitude": "23.5051780740331430",
  "latitude": "44.2937311949530330",
  "name": "Terpezi\u021ba",
  "region": "Sud-Vest - Oltenia"
}, {
  "id": "353",
  "county_id": "1",
  "siruta": "74377",
  "longitude": "23.5519166698726470",
  "latitude": "44.3179232748430820",
  "name": "C\u0103ruia",
  "region": "Sud-Vest - Oltenia"
}, {
  "id": "354",
  "county_id": "1",
  "siruta": "74386",
  "longitude": "23.4211651528640810",
  "latitude": "44.3141485037929570",
  "name": "C\u0103ciulatu",
  "region": "Sud-Vest - Oltenia"
}, {
  "id": "355",
  "county_id": "1",
  "siruta": "74395",
  "longitude": "23.4392779030214910",
  "latitude": "44.3100000033404700",
  "name": "Floran",
  "region": "Sud-Vest - Oltenia"
}, {
  "id": "356",
  "county_id": "1",
  "siruta": "74402",
  "longitude": "23.5425457412590870",
  "latitude": "44.2957245567667710",
  "name": "Lazu",
  "region": "Sud-Vest - Oltenia"
}, {
  "id": "357",
  "county_id": "1",
  "siruta": "74420",
  "longitude": "24.1576270451546550",
  "latitude": "44.2055245859602690",
  "name": "Teslui",
  "region": "Sud-Vest - Oltenia"
}, {
  "id": "358",
  "county_id": "1",
  "siruta": "74439",
  "longitude": "24.1893189486986810",
  "latitude": "44.1955969160333310",
  "name": "Co\u0219ereni",
  "region": "Sud-Vest - Oltenia"
}, {
  "id": "359",
  "county_id": "1",
  "siruta": "74448",
  "longitude": "24.0895632509378220",
  "latitude": "44.2008541002601660",
  "name": "F\u00e2nt\u00e2nele",
  "region": "Sud-Vest - Oltenia"
}, {
  "id": "360",
  "county_id": "1",
  "siruta": "74457",
  "longitude": "24.1944579103325270",
  "latitude": "44.2038955809391680",
  "name": "Preajba de Jos",
  "region": "Sud-Vest - Oltenia"
}, {
  "id": "361",
  "county_id": "1",
  "siruta": "74466",
  "longitude": "24.2131169549880630",
  "latitude": "44.1970349712417200",
  "name": "Preajba de P\u0103dure",
  "region": "Sud-Vest - Oltenia"
}, {
  "id": "362",
  "county_id": "1",
  "siruta": "74475",
  "longitude": "24.1154485373263830",
  "latitude": "44.1999447857418280",
  "name": "\u021a\u0103r\u021b\u0103l",
  "region": "Sud-Vest - Oltenia"
}, {
  "id": "363",
  "county_id": "1",
  "siruta": "74484",
  "longitude": "24.1466969119575520",
  "latitude": "44.2196977403338710",
  "name": "Urieni",
  "region": "Sud-Vest - Oltenia"
}, {
  "id": "364",
  "county_id": "1",
  "siruta": "74493",
  "longitude": "24.1426823730516350",
  "latitude": "44.2305568993628670",
  "name": "Vii\u0219oara Mo\u0219neni",
  "region": "Sud-Vest - Oltenia"
}, {
  "id": "365",
  "county_id": "1",
  "siruta": "74518",
  "longitude": "23.8117644741699440",
  "latitude": "44.1875060624477380",
  "name": "\u021auglui",
  "region": "Sud-Vest - Oltenia"
}, {
  "id": "366",
  "county_id": "1",
  "siruta": "74527",
  "longitude": "23.8341517799940200",
  "latitude": "44.2131833370852050",
  "name": "Jiul",
  "region": "Sud-Vest - Oltenia"
}, {
  "id": "367",
  "county_id": "1",
  "siruta": "74545",
  "longitude": "23.1793553291968840",
  "latitude": "44.1581054272864720",
  "name": "Unirea",
  "region": "Sud-Vest - Oltenia"
}, {
  "id": "368",
  "county_id": "1",
  "siruta": "74563",
  "longitude": "23.5419076887153340",
  "latitude": "44.0135522329224710",
  "name": "Urzicu\u021ba",
  "region": "Sud-Vest - Oltenia"
}, {
  "id": "369",
  "county_id": "1",
  "siruta": "74572",
  "longitude": "23.5972159841080260",
  "latitude": "44.0161471463428670",
  "name": "Urzica Mare",
  "region": "Sud-Vest - Oltenia"
}, {
  "id": "370",
  "county_id": "1",
  "siruta": "74590",
  "longitude": "23.8745209374811510",
  "latitude": "43.9852874936335990",
  "name": "Valea Stanciului",
  "region": "Sud-Vest - Oltenia"
}, {
  "id": "371",
  "county_id": "1",
  "siruta": "74607",
  "longitude": "23.8711159433491420",
  "latitude": "43.9576242941358830",
  "name": "Horezu Poenari",
  "region": "Sud-Vest - Oltenia"
}, {
  "id": "372",
  "county_id": "1",
  "siruta": "74625",
  "longitude": "23.4208776421268250",
  "latitude": "44.2777377787211390",
  "name": "Vela",
  "region": "Sud-Vest - Oltenia"
}, {
  "id": "373",
  "county_id": "1",
  "siruta": "74634",
  "longitude": "23.3532121538586460",
  "latitude": "44.2990346653564160",
  "name": "Bucovicior",
  "region": "Sud-Vest - Oltenia"
}, {
  "id": "374",
  "county_id": "1",
  "siruta": "74643",
  "longitude": "23.3860720715656960",
  "latitude": "44.2949836400676060",
  "name": "Cet\u0103\u021buia",
  "region": "Sud-Vest - Oltenia"
}, {
  "id": "375",
  "county_id": "1",
  "siruta": "74652",
  "longitude": "23.3725678796649380",
  "latitude": "44.2697858124715400",
  "name": "Desn\u0103\u021bui",
  "region": "Sud-Vest - Oltenia"
}, {
  "id": "376",
  "county_id": "1",
  "siruta": "74661",
  "longitude": "23.3438327853126570",
  "latitude": "44.2807699718098180",
  "name": "Gubaucea",
  "region": "Sud-Vest - Oltenia"
}, {
  "id": "377",
  "county_id": "1",
  "siruta": "74670",
  "longitude": "23.4074991712902760",
  "latitude": "44.2671896863047040",
  "name": "Segle\u021b",
  "region": "Sud-Vest - Oltenia"
}, {
  "id": "378",
  "county_id": "1",
  "siruta": "74689",
  "longitude": "23.3882493939607590",
  "latitude": "44.2680225286445650",
  "name": "Suharu",
  "region": "Sud-Vest - Oltenia"
}, {
  "id": "379",
  "county_id": "1",
  "siruta": "74698",
  "longitude": "23.3586187046397310",
  "latitude": "44.3245490900123680",
  "name": "\u0218tiubei",
  "region": "Sud-Vest - Oltenia"
}, {
  "id": "380",
  "county_id": "1",
  "siruta": "74714",
  "longitude": "23.1700459927434790",
  "latitude": "44.3022797447706220",
  "name": "Verbi\u021ba",
  "region": "Sud-Vest - Oltenia"
}, {
  "id": "381",
  "county_id": "1",
  "siruta": "74723",
  "longitude": "23.1876679039673520",
  "latitude": "44.2838255718176650",
  "name": "Verbicioara",
  "region": "Sud-Vest - Oltenia"
}, {
  "id": "382",
  "county_id": "1",
  "siruta": "74741",
  "longitude": "23.3483122773129850",
  "latitude": "44.2087331794763400",
  "name": "V\u00e2rtop",
  "region": "Sud-Vest - Oltenia"
}, {
  "id": "383",
  "county_id": "1",
  "siruta": "74769",
  "longitude": "23.6088776076876210",
  "latitude": "44.2448761538505480",
  "name": "V\u00e2rvoru de Jos",
  "region": "Sud-Vest - Oltenia"
}, {
  "id": "384",
  "county_id": "1",
  "siruta": "74778",
  "longitude": "23.6531943317850480",
  "latitude": "44.2272803767229230",
  "name": "Bujor",
  "region": "Sud-Vest - Oltenia"
}, {
  "id": "385",
  "county_id": "1",
  "siruta": "74787",
  "longitude": "23.5692967741101680",
  "latitude": "44.2257041036500670",
  "name": "Ciutura",
  "region": "Sud-Vest - Oltenia"
}, {
  "id": "386",
  "county_id": "1",
  "siruta": "74796",
  "longitude": "23.6322130758188930",
  "latitude": "44.2497704896473180",
  "name": "Criva",
  "region": "Sud-Vest - Oltenia"
}, {
  "id": "387",
  "county_id": "1",
  "siruta": "74803",
  "longitude": "23.6147006341767140",
  "latitude": "44.2626874008531890",
  "name": "Dobromira",
  "region": "Sud-Vest - Oltenia"
}, {
  "id": "388",
  "county_id": "1",
  "siruta": "74812",
  "longitude": "23.5256959209425710",
  "latitude": "44.2338530774205270",
  "name": "Dr\u0103goaia",
  "region": "Sud-Vest - Oltenia"
}, {
  "id": "389",
  "county_id": "1",
  "siruta": "74821",
  "longitude": "23.5679676773951670",
  "latitude": "44.2567919408295580",
  "name": "Gabru",
  "region": "Sud-Vest - Oltenia"
}, {
  "id": "390",
  "county_id": "1",
  "siruta": "74830",
  "longitude": "23.6265897444887720",
  "latitude": "44.2281015701847340",
  "name": "V\u00e2rvor",
  "region": "Sud-Vest - Oltenia"
}, {
  "id": "391",
  "county_id": "2",
  "siruta": "20304",
  "longitude": "26.9113387603545000",
  "latitude": "46.5665132000984340",
  "name": "Bac\u0103u",
  "region": "Nord-Est"
}, {
  "id": "392",
  "county_id": "2",
  "siruta": "20322",
  "longitude": "26.8543957094616770",
  "latitude": "46.6264256066322820",
  "name": "Hemeiu\u0219",
  "region": "Nord-Est"
}, {
  "id": "393",
  "county_id": "2",
  "siruta": "20331",
  "longitude": "26.8457190814125680",
  "latitude": "46.6027630339087010",
  "name": "F\u00e2nt\u00e2nele",
  "region": "Nord-Est"
}, {
  "id": "394",
  "county_id": "2",
  "siruta": "20340",
  "longitude": "26.8717648370074470",
  "latitude": "46.6286098771744900",
  "name": "Lilieci",
  "region": "Nord-Est"
}, {
  "id": "395",
  "county_id": "2",
  "siruta": "20368",
  "longitude": "26.9443193314564590",
  "latitude": "46.5575816254849710",
  "name": "Letea Veche",
  "region": "Nord-Est"
}, {
  "id": "396",
  "county_id": "2",
  "siruta": "20377",
  "longitude": "26.9749912498399280",
  "latitude": "46.5785576648714540",
  "name": "Holt",
  "region": "Nord-Est"
}, {
  "id": "397",
  "county_id": "2",
  "siruta": "20386",
  "longitude": "26.9944774592262000",
  "latitude": "46.5460487126450670",
  "name": "Radomire\u0219ti",
  "region": "Nord-Est"
}, {
  "id": "398",
  "county_id": "2",
  "siruta": "20395",
  "longitude": "26.9613035559898680",
  "latitude": "46.5229877178799640",
  "name": "Ru\u0219i-Ciutea",
  "region": "Nord-Est"
}, {
  "id": "399",
  "county_id": "2",
  "siruta": "20402",
  "longitude": "26.9683814055165780",
  "latitude": "46.5066318216440920",
  "name": "Siretu",
  "region": "Nord-Est"
}, {
  "id": "400",
  "county_id": "2",
  "siruta": "20420",
  "longitude": "26.8593187541719550",
  "latitude": "46.5619582477522510",
  "name": "M\u0103gura",
  "region": "Nord-Est"
}, {
  "id": "401",
  "county_id": "2",
  "siruta": "20439",
  "longitude": "26.8286021154497190",
  "latitude": "46.5707842678701380",
  "name": "Crihan",
  "region": "Nord-Est"
}, {
  "id": "402",
  "county_id": "2",
  "siruta": "20448",
  "longitude": "26.8430430017554190",
  "latitude": "46.5486048677891230",
  "name": "Dealu-Mare",
  "region": "Nord-Est"
}, {
  "id": "403",
  "county_id": "2",
  "siruta": "20457",
  "longitude": "26.8250212308840300",
  "latitude": "46.5612392408269220",
  "name": "Sohodol",
  "region": "Nord-Est"
}, {
  "id": "404",
  "county_id": "2",
  "siruta": "20475",
  "longitude": "26.8509498671946290",
  "latitude": "46.5875966254316220",
  "name": "M\u0103rgineni",
  "region": "Nord-Est"
}, {
  "id": "405",
  "county_id": "2",
  "siruta": "20484",
  "longitude": "26.8711784555360680",
  "latitude": "46.5756873029979630",
  "name": "Bara\u021bi",
  "region": "Nord-Est"
}, {
  "id": "406",
  "county_id": "2",
  "siruta": "20493",
  "longitude": "26.7626048508205550",
  "latitude": "46.6088998414219300",
  "name": "Luncani",
  "region": "Nord-Est"
}, {
  "id": "407",
  "county_id": "2",
  "siruta": "20509",
  "longitude": "26.8312412681686720",
  "latitude": "46.5798402364231380",
  "name": "P\u0103dureni",
  "region": "Nord-Est"
}, {
  "id": "408",
  "county_id": "2",
  "siruta": "20518",
  "longitude": "26.7244217303760510",
  "latitude": "46.6141942741655480",
  "name": "Podi\u0219",
  "region": "Nord-Est"
}, {
  "id": "409",
  "county_id": "2",
  "siruta": "20527",
  "longitude": "26.7413435729913620",
  "latitude": "46.6251696931687790",
  "name": "Poiana",
  "region": "Nord-Est"
}, {
  "id": "410",
  "county_id": "2",
  "siruta": "20536",
  "longitude": "26.8396266972566480",
  "latitude": "46.5947706257245070",
  "name": "Trebe\u0219",
  "region": "Nord-Est"
}, {
  "id": "411",
  "county_id": "2",
  "siruta": "20545",
  "longitude": "26.8190089926630290",
  "latitude": "46.5961966220934800",
  "name": "Valea Budului",
  "region": "Nord-Est"
}, {
  "id": "412",
  "county_id": "2",
  "siruta": "20572",
  "longitude": "26.7661570146721530",
  "latitude": "46.2482731292601060",
  "name": "One\u0219ti",
  "region": "Nord-Est"
}, {
  "id": "413",
  "county_id": "2",
  "siruta": "20581",
  "longitude": "26.8207250340939180",
  "latitude": "46.2421989411206060",
  "name": "Borze\u0219ti",
  "region": "Nord-Est"
}, {
  "id": "414",
  "county_id": "2",
  "siruta": "20590",
  "longitude": "26.7886274007441610",
  "latitude": "46.2779381249723370",
  "name": "Slobozia",
  "region": "Nord-Est"
}, {
  "id": "415",
  "county_id": "2",
  "siruta": "20616",
  "longitude": "26.8294639520218750",
  "latitude": "46.2690677016583080",
  "name": "Gura V\u0103ii",
  "region": "Nord-Est"
}, {
  "id": "416",
  "county_id": "2",
  "siruta": "20625",
  "longitude": "26.8819512513903160",
  "latitude": "46.3247444443644130",
  "name": "Cap\u0103ta",
  "region": "Nord-Est"
}, {
  "id": "417",
  "county_id": "2",
  "siruta": "20634",
  "longitude": "26.8908650780554370",
  "latitude": "46.3096943505387200",
  "name": "Dumbrava",
  "region": "Nord-Est"
}, {
  "id": "418",
  "county_id": "2",
  "siruta": "20643",
  "longitude": "26.8739933588310120",
  "latitude": "46.2692029543447280",
  "name": "Motoce\u0219ti",
  "region": "Nord-Est"
}, {
  "id": "419",
  "county_id": "2",
  "siruta": "20652",
  "longitude": "26.8851630902560110",
  "latitude": "46.2842652127541500",
  "name": "P\u0103ltinata",
  "region": "Nord-Est"
}, {
  "id": "420",
  "county_id": "2",
  "siruta": "20661",
  "longitude": "26.8751387500756320",
  "latitude": "46.2898924993504790",
  "name": "Temelia",
  "region": "Nord-Est"
}, {
  "id": "421",
  "county_id": "2",
  "siruta": "20689",
  "longitude": "26.8619169785672190",
  "latitude": "46.2163553881546890",
  "name": "\u0218tefan cel Mare",
  "region": "Nord-Est"
}, {
  "id": "422",
  "county_id": "2",
  "siruta": "20698",
  "longitude": "26.8447479088004070",
  "latitude": "46.1875459527153820",
  "name": "Bogdana",
  "region": "Nord-Est"
}, {
  "id": "423",
  "county_id": "2",
  "siruta": "20705",
  "longitude": "26.7844517889331400",
  "latitude": "46.2022982902134130",
  "name": "Buciumi",
  "region": "Nord-Est"
}, {
  "id": "424",
  "county_id": "2",
  "siruta": "20714",
  "longitude": "26.8215640308760040",
  "latitude": "46.2051607610267180",
  "name": "Gutina\u0219",
  "region": "Nord-Est"
}, {
  "id": "425",
  "county_id": "2",
  "siruta": "20723",
  "longitude": "26.8886887925099640",
  "latitude": "46.2004282138540820",
  "name": "Negoie\u0219ti",
  "region": "Nord-Est"
}, {
  "id": "426",
  "county_id": "2",
  "siruta": "20732",
  "longitude": "26.7872271153319160",
  "latitude": "46.2247632244693630",
  "name": "R\u0103c\u0103u\u021bi",
  "region": "Nord-Est"
}, {
  "id": "427",
  "county_id": "2",
  "siruta": "20741",
  "longitude": "26.8386113538822850",
  "latitude": "46.2196208895404940",
  "name": "R\u0103deana",
  "region": "Nord-Est"
}, {
  "id": "428",
  "county_id": "2",
  "siruta": "20750",
  "longitude": "26.8845801474744450",
  "latitude": "46.2311763107318470",
  "name": "Vii\u0219oara",
  "region": "Nord-Est"
}, {
  "id": "429",
  "county_id": "2",
  "siruta": "20787",
  "longitude": "26.6997025637237260",
  "latitude": "46.7203049853696160",
  "name": "Buhu\u0219i",
  "region": "Nord-Est"
}, {
  "id": "430",
  "county_id": "2",
  "siruta": "20796",
  "longitude": "26.7276770500333320",
  "latitude": "46.7293818830104470",
  "name": "Marginea",
  "region": "Nord-Est"
}, {
  "id": "431",
  "county_id": "2",
  "siruta": "20803",
  "longitude": "26.7462015556719560",
  "latitude": "46.7479541882720970",
  "name": "Runcu",
  "region": "Nord-Est"
}, {
  "id": "432",
  "county_id": "2",
  "siruta": "20830",
  "longitude": "26.4431962238024100",
  "latitude": "46.4215649618654280",
  "name": "Com\u0103ne\u0219ti",
  "region": "Nord-Est"
}, {
  "id": "433",
  "county_id": "2",
  "siruta": "20849",
  "longitude": "26.4430888140749050",
  "latitude": "46.4090668862805910",
  "name": "Podei",
  "region": "Nord-Est"
}, {
  "id": "434",
  "county_id": "2",
  "siruta": "20858",
  "longitude": "26.4766034540692100",
  "latitude": "46.4217158774585600",
  "name": "Verme\u0219ti",
  "region": "Nord-Est"
}, {
  "id": "435",
  "county_id": "2",
  "siruta": "20885",
  "longitude": "26.4927835757206120",
  "latitude": "46.4750047150834790",
  "name": "Moine\u0219ti",
  "region": "Nord-Est"
}, {
  "id": "436",
  "county_id": "2",
  "siruta": "20894",
  "longitude": "26.5187738802860410",
  "latitude": "46.4892779182170840",
  "name": "G\u0103z\u0103rie",
  "region": "Nord-Est"
}, {
  "id": "437",
  "county_id": "2",
  "siruta": "20929",
  "longitude": "26.4591883986904860",
  "latitude": "46.2217092496795490",
  "name": "Sl\u0103nic-Moldova",
  "region": "Nord-Est"
}, {
  "id": "438",
  "county_id": "2",
  "siruta": "20938",
  "longitude": "26.5163840239819240",
  "latitude": "46.2379389240652260",
  "name": "Cerdac",
  "region": "Nord-Est"
}, {
  "id": "439",
  "county_id": "2",
  "siruta": "20947",
  "longitude": "26.5492890078179610",
  "latitude": "46.2481627808423710",
  "name": "Cire\u0219oaia",
  "region": "Nord-Est"
}, {
  "id": "440",
  "county_id": "2",
  "siruta": "20974",
  "longitude": "26.6112708543282150",
  "latitude": "46.2802093985770280",
  "name": "T\u00e2rgu Ocna",
  "region": "Nord-Est"
}, {
  "id": "441",
  "county_id": "2",
  "siruta": "20983",
  "longitude": "26.5743542013081710",
  "latitude": "46.2832693538053160",
  "name": "Poieni",
  "region": "Nord-Est"
}, {
  "id": "442",
  "county_id": "2",
  "siruta": "20992",
  "longitude": "26.6000547065267870",
  "latitude": "46.2980142038547130",
  "name": "V\u00e2lcele",
  "region": "Nord-Est"
}, {
  "id": "443",
  "county_id": "2",
  "siruta": "21016",
  "longitude": "26.2270592241560010",
  "latitude": "46.4819853563004200",
  "name": "Ag\u0103\u0219",
  "region": "Nord-Est"
}, {
  "id": "444",
  "county_id": "2",
  "siruta": "21025",
  "longitude": "26.2601254414812180",
  "latitude": "46.4725657100231690",
  "name": "Beleghet",
  "region": "Nord-Est"
}, {
  "id": "445",
  "county_id": "2",
  "siruta": "21034",
  "longitude": "26.0760195536297880",
  "latitude": "46.4316511299065620",
  "name": "Co\u0219nea",
  "region": "Nord-Est"
}, {
  "id": "446",
  "county_id": "2",
  "siruta": "21043",
  "longitude": "26.1911161105986170",
  "latitude": "46.4974272271642160",
  "name": "Cotumba",
  "region": "Nord-Est"
}, {
  "id": "447",
  "county_id": "2",
  "siruta": "21052",
  "longitude": "26.2697197587405140",
  "latitude": "46.4611218045772110",
  "name": "Diacone\u0219ti",
  "region": "Nord-Est"
}, {
  "id": "448",
  "county_id": "2",
  "siruta": "21061",
  "longitude": "26.2980644371604130",
  "latitude": "46.4472258754223970",
  "name": "Goioasa",
  "region": "Nord-Est"
}, {
  "id": "449",
  "county_id": "2",
  "siruta": "21070",
  "longitude": "26.2759167957301080",
  "latitude": "46.4560318791520790",
  "name": "Preluci",
  "region": "Nord-Est"
}, {
  "id": "450",
  "county_id": "2",
  "siruta": "21089",
  "longitude": "26.2389629104646080",
  "latitude": "46.4686207015345970",
  "name": "Sul\u021ba",
  "region": "Nord-Est"
}, {
  "id": "451",
  "county_id": "2",
  "siruta": "21105",
  "longitude": "26.6102814040922730",
  "latitude": "46.5267172456044020",
  "name": "Ardeoani",
  "region": "Nord-Est"
}, {
  "id": "452",
  "county_id": "2",
  "siruta": "21114",
  "longitude": "26.5930214241759690",
  "latitude": "46.5169332270252980",
  "name": "Leontine\u0219ti",
  "region": "Nord-Est"
}, {
  "id": "453",
  "county_id": "2",
  "siruta": "21132",
  "longitude": "26.4011100659933610",
  "latitude": "46.4387432989027640",
  "name": "As\u0103u",
  "region": "Nord-Est"
}, {
  "id": "454",
  "county_id": "2",
  "siruta": "21141",
  "longitude": "26.3788794337487470",
  "latitude": "46.4874704968794960",
  "name": "Apa As\u0103u",
  "region": "Nord-Est"
}, {
  "id": "455",
  "county_id": "2",
  "siruta": "21150",
  "longitude": "26.3384390210552870",
  "latitude": "46.4452774074230990",
  "name": "Ciob\u0103nu\u0219",
  "region": "Nord-Est"
}, {
  "id": "456",
  "county_id": "2",
  "siruta": "21169",
  "longitude": "26.4115840176217630",
  "latitude": "46.4350334417511090",
  "name": "Lunca As\u0103u",
  "region": "Nord-Est"
}, {
  "id": "457",
  "county_id": "2",
  "siruta": "21178",
  "longitude": "26.3572022260801510",
  "latitude": "46.5432588358738640",
  "name": "P\u0103ltini\u0219",
  "region": "Nord-Est"
}, {
  "id": "458",
  "county_id": "2",
  "siruta": "21187",
  "longitude": "26.3625837515879620",
  "latitude": "46.4398910476839430",
  "name": "Straja",
  "region": "Nord-Est"
}, {
  "id": "459",
  "county_id": "2",
  "siruta": "21203",
  "longitude": "26.5676473637923820",
  "latitude": "46.6463318588904270",
  "name": "Balcani",
  "region": "Nord-Est"
}, {
  "id": "460",
  "county_id": "2",
  "siruta": "21212",
  "longitude": "26.5419592123051160",
  "latitude": "46.6629752966141210",
  "name": "Frumoasa",
  "region": "Nord-Est"
}, {
  "id": "461",
  "county_id": "2",
  "siruta": "21221",
  "longitude": "26.5792608938254450",
  "latitude": "46.6196182972016690",
  "name": "Luda\u0219i",
  "region": "Nord-Est"
}, {
  "id": "462",
  "county_id": "2",
  "siruta": "21230",
  "longitude": "26.4876063756109690",
  "latitude": "46.6354091007492360",
  "name": "Schitu Frumoasa",
  "region": "Nord-Est"
}, {
  "id": "463",
  "county_id": "2",
  "siruta": "21258",
  "longitude": "26.8580445924708260",
  "latitude": "46.7093988489628340",
  "name": "Bere\u0219ti-Bistri\u021ba",
  "region": "Nord-Est"
}, {
  "id": "464",
  "county_id": "2",
  "siruta": "21267",
  "longitude": "26.8784813094540950",
  "latitude": "46.6874789917653030",
  "name": "Brad",
  "region": "Nord-Est"
}, {
  "id": "465",
  "county_id": "2",
  "siruta": "21276",
  "longitude": "26.8388471738028040",
  "latitude": "46.6778336924382420",
  "name": "Ciuma\u0219i",
  "region": "Nord-Est"
}, {
  "id": "466",
  "county_id": "2",
  "siruta": "21285",
  "longitude": "26.8489159171554020",
  "latitude": "46.7237278141811960",
  "name": "Clime\u0219ti",
  "region": "Nord-Est"
}, {
  "id": "467",
  "county_id": "2",
  "siruta": "21294",
  "longitude": "26.9028930387484450",
  "latitude": "46.6713028182209160",
  "name": "Dumbrava",
  "region": "Nord-Est"
}, {
  "id": "468",
  "county_id": "2",
  "siruta": "21301",
  "longitude": "26.8157726426548210",
  "latitude": "46.6876938605369250",
  "name": "F\u0103ge\u021bel",
  "region": "Nord-Est"
}, {
  "id": "469",
  "county_id": "2",
  "siruta": "21310",
  "longitude": "26.8647061546937600",
  "latitude": "46.6578989778809690",
  "name": "Ite\u0219ti",
  "region": "Nord-Est"
}, {
  "id": "470",
  "county_id": "2",
  "siruta": "21329",
  "longitude": "26.8404679909851890",
  "latitude": "46.7142076366662590",
  "name": "P\u0103dureni",
  "region": "Nord-Est"
}, {
  "id": "471",
  "county_id": "2",
  "siruta": "21347",
  "longitude": "26.6774998214351090",
  "latitude": "46.4695567105294740",
  "name": "Bere\u0219ti-Tazl\u0103u",
  "region": "Nord-Est"
}, {
  "id": "472",
  "county_id": "2",
  "siruta": "21356",
  "longitude": "26.6802550070576670",
  "latitude": "46.5012199028651030",
  "name": "Bo\u0219oteni",
  "region": "Nord-Est"
}, {
  "id": "473",
  "county_id": "2",
  "siruta": "21365",
  "longitude": "26.7058524694002950",
  "latitude": "46.4891798004627930",
  "name": "En\u0103che\u0219ti",
  "region": "Nord-Est"
}, {
  "id": "474",
  "county_id": "2",
  "siruta": "21374",
  "longitude": "26.7174444218186840",
  "latitude": "46.4653664497504200",
  "name": "Prisaca",
  "region": "Nord-Est"
}, {
  "id": "475",
  "county_id": "2",
  "siruta": "21383",
  "longitude": "26.6682097308850030",
  "latitude": "46.4912536786642010",
  "name": "Rom\u00e2ne\u0219ti",
  "region": "Nord-Est"
}, {
  "id": "476",
  "county_id": "2",
  "siruta": "21392",
  "longitude": "26.6560820251384990",
  "latitude": "46.5115958417083920",
  "name": "Tescani",
  "region": "Nord-Est"
}, {
  "id": "477",
  "county_id": "2",
  "siruta": "21409",
  "longitude": "26.6460692331698080",
  "latitude": "46.4529765433308060",
  "name": "Turluianu",
  "region": "Nord-Est"
}, {
  "id": "478",
  "county_id": "2",
  "siruta": "21427",
  "longitude": "26.6444018682823510",
  "latitude": "46.4043154291053380",
  "name": "Berzun\u021bi",
  "region": "Nord-Est"
}, {
  "id": "479",
  "county_id": "2",
  "siruta": "21436",
  "longitude": "26.5910673243775800",
  "latitude": "46.4227595885196750",
  "name": "Buda",
  "region": "Nord-Est"
}, {
  "id": "480",
  "county_id": "2",
  "siruta": "21445",
  "longitude": "26.6316339112022040",
  "latitude": "46.4137308016380810",
  "name": "Dragomir",
  "region": "Nord-Est"
}, {
  "id": "481",
  "county_id": "2",
  "siruta": "21463",
  "longitude": "26.6945787069993910",
  "latitude": "46.3343899051944420",
  "name": "B\u00e2rs\u0103ne\u0219ti",
  "region": "Nord-Est"
}, {
  "id": "482",
  "county_id": "2",
  "siruta": "21472",
  "longitude": "26.6733801193043400",
  "latitude": "46.3648668578620400",
  "name": "Albele",
  "region": "Nord-Est"
}, {
  "id": "483",
  "county_id": "2",
  "siruta": "21481",
  "longitude": "26.6433284641760650",
  "latitude": "46.3253987477282010",
  "name": "Br\u0103te\u0219ti",
  "region": "Nord-Est"
}, {
  "id": "484",
  "county_id": "2",
  "siruta": "21490",
  "longitude": "26.7164074604825430",
  "latitude": "46.3069590083624330",
  "name": "Caracl\u0103u",
  "region": "Nord-Est"
}, {
  "id": "485",
  "county_id": "2",
  "siruta": "21515",
  "longitude": "26.6744039124644910",
  "latitude": "46.6907288714561160",
  "name": "Bl\u0103ge\u0219ti",
  "region": "Nord-Est"
}, {
  "id": "486",
  "county_id": "2",
  "siruta": "21524",
  "longitude": "26.7195287763251490",
  "latitude": "46.6711122966160370",
  "name": "Buda",
  "region": "Nord-Est"
}, {
  "id": "487",
  "county_id": "2",
  "siruta": "21533",
  "longitude": "26.6149076086827560",
  "latitude": "46.6776406802133370",
  "name": "Poiana Negustorului",
  "region": "Nord-Est"
}, {
  "id": "488",
  "county_id": "2",
  "siruta": "21542",
  "longitude": "26.6079237173134900",
  "latitude": "46.6904083132162100",
  "name": "\u021a\u00e2rdenii Mari",
  "region": "Nord-Est"
}, {
  "id": "489",
  "county_id": "2",
  "siruta": "21551",
  "longitude": "26.6249871754394580",
  "latitude": "46.7034952816492460",
  "name": "Valea lui Ion",
  "region": "Nord-Est"
}, {
  "id": "490",
  "county_id": "2",
  "siruta": "21579",
  "longitude": "26.6820826139933910",
  "latitude": "46.2120465796870900",
  "name": "Bogd\u0103ne\u0219ti",
  "region": "Nord-Est"
}, {
  "id": "491",
  "county_id": "2",
  "siruta": "21588",
  "longitude": "26.7169167142594620",
  "latitude": "46.2237510146723660",
  "name": "Filipe\u0219ti",
  "region": "Nord-Est"
}, {
  "id": "492",
  "county_id": "2",
  "siruta": "21604",
  "longitude": "26.1784400540284990",
  "latitude": "46.5217546769604060",
  "name": "Brusturoasa",
  "region": "Nord-Est"
}, {
  "id": "493",
  "county_id": "2",
  "siruta": "21613",
  "longitude": "26.1987085608092440",
  "latitude": "46.5091451686582220",
  "name": "Buruieni\u0219",
  "region": "Nord-Est"
}, {
  "id": "494",
  "county_id": "2",
  "siruta": "21622",
  "longitude": "26.2201207392817500",
  "latitude": "46.5202127259294330",
  "name": "Buruieni\u0219u de Sus",
  "region": "Nord-Est"
}, {
  "id": "495",
  "county_id": "2",
  "siruta": "21631",
  "longitude": "26.1997224150056130",
  "latitude": "46.5316215572573880",
  "name": "Camenca",
  "region": "Nord-Est"
}, {
  "id": "496",
  "county_id": "2",
  "siruta": "21640",
  "longitude": "26.1697140975175520",
  "latitude": "46.5257941382629100",
  "name": "Cuchini\u0219",
  "region": "Nord-Est"
}, {
  "id": "497",
  "county_id": "2",
  "siruta": "21659",
  "longitude": "26.1943898225605590",
  "latitude": "46.5053388382434110",
  "name": "H\u00e2ng\u0103ne\u0219ti",
  "region": "Nord-Est"
}, {
  "id": "498",
  "county_id": "2",
  "siruta": "21677",
  "longitude": "27.0194294989938260",
  "latitude": "46.5665452513892290",
  "name": "Buhoci",
  "region": "Nord-Est"
}, {
  "id": "499",
  "county_id": "2",
  "siruta": "21686",
  "longitude": "27.0199670738445900",
  "latitude": "46.6008590100342420",
  "name": "Bijghir",
  "region": "Nord-Est"
}, {
  "id": "500",
  "county_id": "2",
  "siruta": "21695",
  "longitude": "27.0121142544451620",
  "latitude": "46.5475320348339210",
  "name": "Buhocel",
  "region": "Nord-Est"
}, {
  "id": "501",
  "county_id": "2",
  "siruta": "21702",
  "longitude": "27.0018132525612770",
  "latitude": "46.5319451447174970",
  "name": "Coteni",
  "region": "Nord-Est"
}, {
  "id": "502",
  "county_id": "2",
  "siruta": "21711",
  "longitude": "26.9878730438004090",
  "latitude": "46.5821602323405700",
  "name": "Dospine\u0219ti",
  "region": "Nord-Est"
}, {
  "id": "503",
  "county_id": "2",
  "siruta": "21739",
  "longitude": "26.7461483444069150",
  "latitude": "46.1968860882857730",
  "name": "Ca\u0219in",
  "region": "Nord-Est"
}, {
  "id": "504",
  "county_id": "2",
  "siruta": "21748",
  "longitude": "26.7123213125643060",
  "latitude": "46.1909892759815430",
  "name": "Curi\u021ba",
  "region": "Nord-Est"
}, {
  "id": "505",
  "county_id": "2",
  "siruta": "21766",
  "longitude": "26.9257131064577810",
  "latitude": "46.1805695980654180",
  "name": "C\u0103iu\u021bi",
  "region": "Nord-Est"
}, {
  "id": "506",
  "county_id": "2",
  "siruta": "21775",
  "longitude": "26.9213086107129520",
  "latitude": "46.1612217102298030",
  "name": "Blidari",
  "region": "Nord-Est"
}, {
  "id": "507",
  "county_id": "2",
  "siruta": "21784",
  "longitude": "26.9700305352716790",
  "latitude": "46.1909034364279950",
  "name": "Boi\u0219tea",
  "region": "Nord-Est"
}, {
  "id": "508",
  "county_id": "2",
  "siruta": "21793",
  "longitude": "26.8942683976687430",
  "latitude": "46.2183627265696230",
  "name": "Flore\u0219ti",
  "region": "Nord-Est"
}, {
  "id": "509",
  "county_id": "2",
  "siruta": "21800",
  "longitude": "26.9287649443701970",
  "latitude": "46.2008040588812390",
  "name": "Heltiu",
  "region": "Nord-Est"
}, {
  "id": "510",
  "county_id": "2",
  "siruta": "21819",
  "longitude": "26.8972778384154300",
  "latitude": "46.1731515259312320",
  "name": "M\u0103rce\u0219ti",
  "region": "Nord-Est"
}, {
  "id": "511",
  "county_id": "2",
  "siruta": "21828",
  "longitude": "26.9346366114687540",
  "latitude": "46.1715901585939720",
  "name": "Popeni",
  "region": "Nord-Est"
}, {
  "id": "512",
  "county_id": "2",
  "siruta": "21837",
  "longitude": "26.8658041076396370",
  "latitude": "46.1092654446284270",
  "name": "Pralea",
  "region": "Nord-Est"
}, {
  "id": "513",
  "county_id": "2",
  "siruta": "21846",
  "longitude": "26.9091478086693600",
  "latitude": "46.2129766970929770",
  "name": "Vr\u00e2nceni",
  "region": "Nord-Est"
}, {
  "id": "514",
  "county_id": "2",
  "siruta": "21864",
  "longitude": "26.9062943981492420",
  "latitude": "46.4127898793376300",
  "name": "Cleja",
  "region": "Nord-Est"
}, {
  "id": "515",
  "county_id": "2",
  "siruta": "21873",
  "longitude": "26.9118851527852280",
  "latitude": "46.4014654873123150",
  "name": "Somu\u0219ca",
  "region": "Nord-Est"
}, {
  "id": "516",
  "county_id": "2",
  "siruta": "21882",
  "longitude": "26.9449546734573320",
  "latitude": "46.3912260525360340",
  "name": "Valea Mic\u0103",
  "region": "Nord-Est"
}, {
  "id": "517",
  "county_id": "2",
  "siruta": "21908",
  "longitude": "27.3014432467816550",
  "latitude": "46.5782611146712920",
  "name": "Colone\u0219ti",
  "region": "Nord-Est"
}, {
  "id": "518",
  "county_id": "2",
  "siruta": "21917",
  "longitude": "27.2746362594250120",
  "latitude": "46.5936443607139030",
  "name": "C\u0103lini",
  "region": "Nord-Est"
}, {
  "id": "519",
  "county_id": "2",
  "siruta": "21926",
  "longitude": "27.2131367804502950",
  "latitude": "46.6439733441618360",
  "name": "Poiana",
  "region": "Nord-Est"
},